{
"type": "FeatureCollection",
"name": "estaciones",
"crs": { "type": "name", "properties": { "name": "urn:ogc:def:crs:OGC:1.3:CRS84" } },
"features": [
{ "type": "Feature", "properties": { "CODIGO": 94033, "NOMBRE": "Viana D Castelo", "LAT": 41.69517, "LON": -8.83134, "ACCESIBLE": 1, "DIR": "Avda. Dos Combatentes da Grande Guerra", "LOCALIDAD": "VIANA DA CASTELO", "PROV": null, "CERC": 0, "NIVEL": 3, "ATENDO": 0}, "geometry": { "type": "Point", "coordinates": [ -8.83134, 41.69517 ] } },
{ "type": "Feature", "properties": { "CODIGO": 96122, "NOMBRE": "BARCELOS", "LAT": 41.53673, "LON": -8.60907, "ACCESIBLE": 2, "DIR": null, "LOCALIDAD": "BARCELOS", "PROV": null, "CERC": 0, "NIVEL": 3, "ATENDO": 0}, "geometry": { "type": "Point", "coordinates": [ -8.60907, 41.53673 ] } },
{ "type": "Feature", "properties": { "CODIGO": 94021, "NOMBRE": "Nine", "LAT": 41.45534, "LON": -8.54513, "ACCESIBLE": 1, "DIR": "Calle de la Estacion", "LOCALIDAD": "NINE", "PROV": null, "CERC": 0, "NIVEL": 3, "ATENDO": 0}, "geometry": { "type": "Point", "coordinates": [ -8.54513, 41.45534 ] } },
{ "type": "Feature", "properties": { "CODIGO": 94346, "NOMBRE": "Porto Campanha", "LAT": 41.1489, "LON": -8.58544, "ACCESIBLE": 1, "DIR": "Rua da Estação", "LOCALIDAD": "O PORTO CAMPAÑA", "PROV": null, "CERC": 0, "NIVEL": 1, "ATENDO": 0}, "geometry": { "type": "Point", "coordinates": [ -8.58544, 41.1489 ] } },
{ "type": "Feature", "properties": { "CODIGO": 87374, "NOMBRE": "Perpignan", "LAT": 42.696421, "LON": 2.880381, "ACCESIBLE": 2, "DIR": "Place Salvador Dali", "LOCALIDAD": "PERPIGNAN", "PROV": null, "CERC": 0, "NIVEL": 3, "ATENDO": 0}, "geometry": { "type": "Point", "coordinates": [ 2.880381, 42.696421 ] } },
{ "type": "Feature", "properties": { "CODIGO": 87088, "NOMBRE": "Narbonne", "LAT": 43.190253, "LON": 3.005716, "ACCESIBLE": 2, "DIR": "Boulevard Frederic Mistral", "LOCALIDAD": "NARBONA", "PROV": "DESCONOCIDO", "CERC": 0, "NIVEL": 3, "ATENDO": 0}, "geometry": { "type": "Point", "coordinates": [ 3.005716, 43.190253 ] } },
{ "type": "Feature", "properties": { "CODIGO": 87173, "NOMBRE": "Montpellier", "LAT": 43.604852, "LON": 3.880491, "ACCESIBLE": 2, "DIR": "Place Auguste Gibert Bp", "LOCALIDAD": "MONTPELLIER", "PROV": "DESCONOCIDO", "CERC": 0, "NIVEL": 3, "ATENDO": 0}, "geometry": { "type": "Point", "coordinates": [ 3.880491, 43.604852 ] } },
{ "type": "Feature", "properties": { "CODIGO": 87302, "NOMBRE": "NIMES", "LAT": 43.832291, "LON": 4.365845, "ACCESIBLE": 2, "DIR": "Boulevart Sergent Triaire", "LOCALIDAD": "NIMES", "PROV": null, "CERC": 0, "NIVEL": 3, "ATENDO": 0}, "geometry": { "type": "Point", "coordinates": [ 4.365845, 43.832291 ] } },
{ "type": "Feature", "properties": { "CODIGO": 87912, "NOMBRE": "Aix en Provence", "LAT": 43.455268, "LON": 5.31723, "ACCESIBLE": 2, "DIR": "Route Departamentale, 9", "LOCALIDAD": "AIX EN PROVENCE", "PROV": null, "CERC": 0, "NIVEL": 3, "ATENDO": 0}, "geometry": { "type": "Point", "coordinates": [ 5.31723, 43.455268 ] } },
{ "type": "Feature", "properties": { "CODIGO": 87303, "NOMBRE": "Lyon Part Dieu", "LAT": 45.760281, "LON": 4.859801, "ACCESIBLE": 2, "DIR": "Place Chales Beraudier", "LOCALIDAD": "LYON", "PROV": null, "CERC": 0, "NIVEL": 1, "ATENDO": 0}, "geometry": { "type": "Point", "coordinates": [ 4.859801, 45.760281 ] } },
{ "type": "Feature", "properties": { "CODIGO": 87810, "NOMBRE": "Valence", "LAT": 44.991545, "LON": 4.978703, "ACCESIBLE": 2, "DIR": "Valence Cedex, 9", "LOCALIDAD": "VALENCE", "PROV": null, "CERC": 0, "NIVEL": 3, "ATENDO": 0}, "geometry": { "type": "Point", "coordinates": [ 4.978703, 44.991545 ] } },
{ "type": "Feature", "properties": { "CODIGO": 87089, "NOMBRE": "Marseille St Charles", "LAT": 43.30349, "LON": 5.382236, "ACCESIBLE": 2, "DIR": "Square Narvik", "LOCALIDAD": "MARSEILLE", "PROV": null, "CERC": 0, "NIVEL": 1, "ATENDO": 0}, "geometry": { "type": "Point", "coordinates": [ 5.382236, 43.30349 ] } },
{ "type": "Feature", "properties": { "CODIGO": 87814, "NOMBRE": "Avignon", "LAT": 43.921938, "LON": 4.785813, "ACCESIBLE": 2, "DIR": "Place de L' Europe", "LOCALIDAD": "AVIGNON", "PROV": null, "CERC": 0, "NIVEL": 3, "ATENDO": 0}, "geometry": { "type": "Point", "coordinates": [ 4.785813, 43.921938 ] } },
{ "type": "Feature", "properties": { "CODIGO": 99159, "NOMBRE": "Santiago", "LAT": 42.870842, "LON": -8.544697, "ACCESIBLE": 2, "DIR": null, "LOCALIDAD": "SANTIAGO DE COMPOSTELA", "PROV": "CORUÑA, A", "CERC": 0, "NIVEL": 3, "ATENDO": 0}, "geometry": { "type": "Point", "coordinates": [ -8.544697, 42.870842 ] } },
{ "type": "Feature", "properties": { "CODIGO": 99117, "NOMBRE": "Ourense", "LAT": 42.350389, "LON": -7.872777, "ACCESIBLE": 2, "DIR": null, "LOCALIDAD": "OURENSE", "PROV": "OURENSE", "CERC": 1, "NIVEL": 3, "ATENDO": 0}, "geometry": { "type": "Point", "coordinates": [ -7.872777, 42.350389 ] } },
{ "type": "Feature", "properties": { "CODIGO": 99161, "NOMBRE": "Pontevedra", "LAT": 42.421969, "LON": -8.635546, "ACCESIBLE": 1, "DIR": null, "LOCALIDAD": "PONTEVEDRA", "PROV": "PONTEVEDRA", "CERC": 0, "NIVEL": 3, "ATENDO": 0}, "geometry": { "type": "Point", "coordinates": [ -8.635546, 42.421969 ] } },
{ "type": "Feature", "properties": { "CODIGO": 99143, "NOMBRE": "A Coruna", "LAT": 43.352761, "LON": -8.409755, "ACCESIBLE": 2, "DIR": null, "LOCALIDAD": "CORUÑA (A)", "PROV": "CORUÑA, A", "CERC": 0, "NIVEL": 3, "ATENDO": 0}, "geometry": { "type": "Point", "coordinates": [ -8.409755, 43.352761 ] } },
{ "type": "Feature", "properties": { "CODIGO": 8224, "NOMBRE": "Redondela", "LAT": 42.286005, "LON": -8.619402, "ACCESIBLE": 2, "DIR": "Estrada de Pazos, 10", "LOCALIDAD": "REDONDELA", "PROV": "PONTEVEDRA", "CERC": 0, "NIVEL": 3, "ATENDO": 1}, "geometry": { "type": "Point", "coordinates": [ -8.619402, 42.286005 ] } },
{ "type": "Feature", "properties": { "CODIGO": 37700, "NOMBRE": "Puertollano", "LAT": 38.69128, "LON": -4.111655, "ACCESIBLE": 1, "DIR": "C/ Muelle, S/N", "LOCALIDAD": "PUERTOLLANO", "PROV": "CIUDAD REAL", "CERC": 0, "NIVEL": 1, "ATENDO": 1}, "geometry": { "type": "Point", "coordinates": [ -4.111655, 38.69128 ] } },
{ "type": "Feature", "properties": { "CODIGO": 8251, "NOMBRE": "A GUDIÑA-PORTA DE GALICIA", "LAT": 42.0636337, "LON": -7.1342408, "ACCESIBLE": 2, "DIR": "Rúa Viana, S/N", "LOCALIDAD": "GUDIÑA (A)", "PROV": "OURENSE", "CERC": 0, "NIVEL": 3, "ATENDO": 0}, "geometry": { "type": "Point", "coordinates": [ -7.134241, 42.063634 ] } },
{ "type": "Feature", "properties": { "CODIGO": 10400, "NOMBRE": "Ávila", "LAT": 40.657255, "LON": -4.683312, "ACCESIBLE": 1, "DIR": "Paseo Estación Ferrocarril, S/N", "LOCALIDAD": "ÁVILA", "PROV": "ÁVILA", "CERC": 0, "NIVEL": 1, "ATENDO": 1}, "geometry": { "type": "Point", "coordinates": [ -4.683312, 40.657255 ] } },
{ "type": "Feature", "properties": { "CODIGO": 20316, "NOMBRE": "Teixeiro", "LAT": 43.141411, "LON": -8.03769, "ACCESIBLE": 2, "DIR": "C/ Camino Estación Ferrocarril, S/N", "LOCALIDAD": "CURTIS", "PROV": "CORUÑA, A", "CERC": 0, "NIVEL": 3, "ATENDO": 0}, "geometry": { "type": "Point", "coordinates": [ -8.03769, 43.141411 ] } },
{ "type": "Feature", "properties": { "CODIGO": 20313, "NOMBRE": "Parga", "LAT": 43.163644, "LON": -7.837383, "ACCESIBLE": 2, "DIR": "Avda. da Estación, 9", "LOCALIDAD": "GUITIRIZ", "PROV": "LUGO", "CERC": 0, "NIVEL": 3, "ATENDO": 0}, "geometry": { "type": "Point", "coordinates": [ -7.837383, 43.163644 ] } },
{ "type": "Feature", "properties": { "CODIGO": 20312, "NOMBRE": "Baamonde", "LAT": 43.173405, "LON": -7.756128, "ACCESIBLE": 2, "DIR": "C/ Estación Ferrocarril, 8", "LOCALIDAD": "BEGONTE", "PROV": "LUGO", "CERC": 0, "NIVEL": 3, "ATENDO": 0}, "geometry": { "type": "Point", "coordinates": [ -7.756128, 43.173405 ] } },
{ "type": "Feature", "properties": { "CODIGO": 20310, "NOMBRE": "Rabade", "LAT": 43.121378, "LON": -7.624835, "ACCESIBLE": 2, "DIR": "Praza de España, 23", "LOCALIDAD": "RÁBADE", "PROV": "LUGO", "CERC": 0, "NIVEL": 3, "ATENDO": 0}, "geometry": { "type": "Point", "coordinates": [ -7.624835, 43.121378 ] } },
{ "type": "Feature", "properties": { "CODIGO": 21010, "NOMBRE": "Ferrol", "LAT": 43.4880467, "LON": -8.2310664, "ACCESIBLE": 1, "DIR": "Avda. de Compostela, S/N", "LOCALIDAD": "FERROL", "PROV": "CORUÑA, A", "CERC": 1, "NIVEL": 1, "ATENDO": 1}, "geometry": { "type": "Point", "coordinates": [ -8.231066, 43.488047 ] } },
{ "type": "Feature", "properties": { "CODIGO": 21005, "NOMBRE": "Cabanas-Areal", "LAT": 43.415585, "LON": -8.168828, "ACCESIBLE": 2, "DIR": "Avda. Hilario Ruiz, S/N", "LOCALIDAD": "CABANAS", "PROV": "CORUÑA, A", "CERC": 0, "NIVEL": 3, "ATENDO": 0}, "geometry": { "type": "Point", "coordinates": [ -8.168828, 43.415585 ] } },
{ "type": "Feature", "properties": { "CODIGO": 21004, "NOMBRE": "Pontedeume", "LAT": 43.411797, "LON": -8.180416, "ACCESIBLE": 2, "DIR": "Avda. Ferrol, 77", "LOCALIDAD": "PONTEDEUME", "PROV": "CORUÑA, A", "CERC": 0, "NIVEL": 3, "ATENDO": 0}, "geometry": { "type": "Point", "coordinates": [ -8.180416, 43.411797 ] } },
{ "type": "Feature", "properties": { "CODIGO": 21003, "NOMBRE": "Perbes", "LAT": 43.378197, "LON": -8.201106, "ACCESIBLE": 2, "DIR": "C/ A Cruz, 20", "LOCALIDAD": "MIÑO", "PROV": "CORUÑA, A", "CERC": 0, "NIVEL": 3, "ATENDO": 0}, "geometry": { "type": "Point", "coordinates": [ -8.201106, 43.378197 ] } },
{ "type": "Feature", "properties": { "CODIGO": 21002, "NOMBRE": "Miño", "LAT": 43.349431, "LON": -8.207313, "ACCESIBLE": 2, "DIR": "Pza. Estación Ferrocarril, S/N", "LOCALIDAD": "MIÑO", "PROV": "CORUÑA, A", "CERC": 0, "NIVEL": 3, "ATENDO": 0}, "geometry": { "type": "Point", "coordinates": [ -8.207313, 43.349431 ] } },
{ "type": "Feature", "properties": { "CODIGO": 21001, "NOMBRE": "Betanzos-Cidade", "LAT": 43.284137, "LON": -8.215874, "ACCESIBLE": 2, "DIR": "Rúa Arxentina, 10", "LOCALIDAD": "BETANZOS", "PROV": "CORUÑA, A", "CERC": 0, "NIVEL": 3, "ATENDO": 0}, "geometry": { "type": "Point", "coordinates": [ -8.215874, 43.284137 ] } },
{ "type": "Feature", "properties": { "CODIGO": 21007, "NOMBRE": "Barallobre", "LAT": 43.462899, "LON": -8.188586, "ACCESIBLE": 2, "DIR": "Rúa Pablo Ares Feal, 43", "LOCALIDAD": "FENE", "PROV": "CORUÑA, A", "CERC": 0, "NIVEL": 3, "ATENDO": 0}, "geometry": { "type": "Point", "coordinates": [ -8.188586, 43.462899 ] } },
{ "type": "Feature", "properties": { "CODIGO": 21009, "NOMBRE": "Neda", "LAT": 43.495351, "LON": -8.160967, "ACCESIBLE": 2, "DIR": "Avda. Castelao, 47", "LOCALIDAD": "NEDA", "PROV": "CORUÑA, A", "CERC": 0, "NIVEL": 3, "ATENDO": 0}, "geometry": { "type": "Point", "coordinates": [ -8.160967, 43.495351 ] } },
{ "type": "Feature", "properties": { "CODIGO": 31308, "NOMBRE": "Lalin", "LAT": 42.63253, "LON": -8.142715, "ACCESIBLE": 2, "DIR": "Ctra. Po -534 --- C/ Botos, S/N --- Estación Ferrocarril, S/N", "LOCALIDAD": "LALÍN", "PROV": "PONTEVEDRA", "CERC": 0, "NIVEL": 3, "ATENDO": 0}, "geometry": { "type": "Point", "coordinates": [ -8.142715, 42.63253 ] } },
{ "type": "Feature", "properties": { "CODIGO": 31303, "NOMBRE": "A Friela-Maside", "LAT": 42.411401, "LON": -8.028967, "ACCESIBLE": 2, "DIR": "Ctra. Ou - 0303 - Rúa San Amaro, S/N", "LOCALIDAD": "MASIDE", "PROV": "OURENSE", "CERC": 0, "NIVEL": 3, "ATENDO": 0}, "geometry": { "type": "Point", "coordinates": [ -8.028967, 42.411401 ] } },
{ "type": "Feature", "properties": { "CODIGO": 51401, "NOMBRE": "Puerto Real", "LAT": 36.5309155, "LON": -6.1853143, "ACCESIBLE": 1, "DIR": "Carretera de Circunvalacion - Calle Tierra S/N, Puerto Real (Cádiz)", "LOCALIDAD": "PUERTO REAL", "PROV": "CÁDIZ", "CERC": 1, "NIVEL": 2, "ATENDO": 0}, "geometry": { "type": "Point", "coordinates": [ -6.185314, 36.530915 ] } },
{ "type": "Feature", "properties": { "CODIGO": 51205, "NOMBRE": "Jerez Aeropuerto", "LAT": 36.7515886, "LON": -6.0659384, "ACCESIBLE": 2, "DIR": "Ctra. N - Iv - Km. 628,5", "LOCALIDAD": "JEREZ DE LA FRONTERA", "PROV": "CÁDIZ", "CERC": 1, "NIVEL": 2, "ATENDO": 0}, "geometry": { "type": "Point", "coordinates": [ -6.065938, 36.751589 ] } },
{ "type": "Feature", "properties": { "CODIGO": 51203, "NOMBRE": "Lebrija", "LAT": 36.9116378, "LON": -6.0948487, "ACCESIBLE": 1, "DIR": "Avda. Vicente Aleixandre, S/N", "LOCALIDAD": "LEBRIJA", "PROV": "SEVILLA", "CERC": 1, "NIVEL": 2, "ATENDO": 1}, "geometry": { "type": "Point", "coordinates": [ -6.094849, 36.911638 ] } },
{ "type": "Feature", "properties": { "CODIGO": 51200, "NOMBRE": "Utrera", "LAT": 37.1848178, "LON": -5.7907537, "ACCESIBLE": 1, "DIR": "Avda. Abate Marchena, Nº 11", "LOCALIDAD": "UTRERA", "PROV": "SEVILLA", "CERC": 1, "NIVEL": 2, "ATENDO": 0}, "geometry": { "type": "Point", "coordinates": [ -5.790754, 37.184818 ] } },
{ "type": "Feature", "properties": { "CODIGO": 51103, "NOMBRE": "Dos Hermanas", "LAT": 37.2872259, "LON": -5.9235322, "ACCESIBLE": 2, "DIR": "Pla. del Arenal, S/N", "LOCALIDAD": "DOS HERMANAS", "PROV": "SEVILLA", "CERC": 1, "NIVEL": 2, "ATENDO": 0}, "geometry": { "type": "Point", "coordinates": [ -5.923532, 37.287226 ] } },
{ "type": "Feature", "properties": { "CODIGO": 51100, "NOMBRE": "Sevilla-San Bernardo", "LAT": 37.3777778, "LON": -5.9796142, "ACCESIBLE": 1, "DIR": "C/ Ramón Carande S/N, Sevilla", "LOCALIDAD": "SEVILLA", "PROV": "SEVILLA", "CERC": 1, "NIVEL": 2, "ATENDO": 0}, "geometry": { "type": "Point", "coordinates": [ -5.979614, 37.377778 ] } },
{ "type": "Feature", "properties": { "CODIGO": 3100, "NOMBRE": "Jaen", "LAT": 37.779827, "LON": -3.790798, "ACCESIBLE": 1, "DIR": "Pla. de Jaen Por la Paz, 1", "LOCALIDAD": "JAÉN", "PROV": "JAÉN", "CERC": 0, "NIVEL": 1, "ATENDO": 1}, "geometry": { "type": "Point", "coordinates": [ -3.790798, 37.779827 ] } },
{ "type": "Feature", "properties": { "CODIGO": 50504, "NOMBRE": "Posadas", "LAT": 37.803986, "LON": -5.106325, "ACCESIBLE": 2, "DIR": "Pza. Estación Ferrocarril, S/N", "LOCALIDAD": "POSADAS", "PROV": "CÓRDOBA", "CERC": 0, "NIVEL": 2, "ATENDO": 0}, "geometry": { "type": "Point", "coordinates": [ -5.106325, 37.803986 ] } },
{ "type": "Feature", "properties": { "CODIGO": 50506, "NOMBRE": "Palma del Rio", "LAT": 37.718081, "LON": -5.29276, "ACCESIBLE": 2, "DIR": "C/ Estación Ferrocarril, S/N", "LOCALIDAD": "PALMA DEL RÍO", "PROV": "CÓRDOBA", "CERC": 0, "NIVEL": 1, "ATENDO": 0}, "geometry": { "type": "Point", "coordinates": [ -5.29276, 37.718081 ] } },
{ "type": "Feature", "properties": { "CODIGO": 50507, "NOMBRE": "Peñaflor", "LAT": 37.707502, "LON": -5.341609, "ACCESIBLE": 2, "DIR": "C/ Estación de Ferrocarril, S/N", "LOCALIDAD": "PEÑAFLOR", "PROV": "SEVILLA", "CERC": 0, "NIVEL": 3, "ATENDO": 0}, "geometry": { "type": "Point", "coordinates": [ -5.341609, 37.707502 ] } },
{ "type": "Feature", "properties": { "CODIGO": 50600, "NOMBRE": "Lora Del Río", "LAT": 37.6613212, "LON": -5.5295514, "ACCESIBLE": 2, "DIR": "Avda. de Portugal, S/N", "LOCALIDAD": "LORA DEL RÍO", "PROV": "SEVILLA", "CERC": 1, "NIVEL": 3, "ATENDO": 0}, "geometry": { "type": "Point", "coordinates": [ -5.529551, 37.661321 ] } },
{ "type": "Feature", "properties": { "CODIGO": 51409, "NOMBRE": "Cádiz-Estadio", "LAT": 36.5029461, "LON": -6.2720644, "ACCESIBLE": 1, "DIR": "Avda. de la Sanidad Pública S/N, Cádiz", "LOCALIDAD": "CÁDIZ", "PROV": "CÁDIZ", "CERC": 1, "NIVEL": 3, "ATENDO": 0}, "geometry": { "type": "Point", "coordinates": [ -6.272064, 36.502946 ] } },
{ "type": "Feature", "properties": { "CODIGO": 51404, "NOMBRE": "Segunda Aguada", "LAT": 36.5135317, "LON": -6.2770128, "ACCESIBLE": 1, "DIR": "Avda. Juan Carlos I, S/N..", "LOCALIDAD": "CÁDIZ", "PROV": "CÁDIZ", "CERC": 1, "NIVEL": 3, "ATENDO": 0}, "geometry": { "type": "Point", "coordinates": [ -6.277013, 36.513532 ] } },
{ "type": "Feature", "properties": { "CODIGO": 43015, "NOMBRE": "Niebla", "LAT": 37.3587619, "LON": -6.6812578, "ACCESIBLE": 2, "DIR": "Avda. Puerta del Buey, S/N", "LOCALIDAD": "NIEBLA", "PROV": "HUELVA", "CERC": 0, "NIVEL": 3, "ATENDO": 0}, "geometry": { "type": "Point", "coordinates": [ -6.681258, 37.358762 ] } },
{ "type": "Feature", "properties": { "CODIGO": 43005, "NOMBRE": "Benacazón", "LAT": 37.3568512, "LON": -6.2082011, "ACCESIBLE": 2, "DIR": "C/ Celda, S/N", "LOCALIDAD": "BENACAZÓN", "PROV": "SEVILLA", "CERC": 1, "NIVEL": 3, "ATENDO": 0}, "geometry": { "type": "Point", "coordinates": [ -6.208201, 37.356851 ] } },
{ "type": "Feature", "properties": { "CODIGO": 1007, "NOMBRE": "Osuna", "LAT": 37.233899, "LON": -5.115026, "ACCESIBLE": 2, "DIR": "Avda. Estación Ferrocarril, S/N", "LOCALIDAD": "OSUNA", "PROV": "SEVILLA", "CERC": 0, "NIVEL": 1, "ATENDO": 0}, "geometry": { "type": "Point", "coordinates": [ -5.115026, 37.233899 ] } },
{ "type": "Feature", "properties": { "CODIGO": 1003, "NOMBRE": "Arahal", "LAT": 37.268081, "LON": -5.548514, "ACCESIBLE": 2, "DIR": "C/ Virgen de los Dolores, S/N", "LOCALIDAD": "ARAHAL", "PROV": "SEVILLA", "CERC": 0, "NIVEL": 3, "ATENDO": 0}, "geometry": { "type": "Point", "coordinates": [ -5.548514, 37.268081 ] } },
{ "type": "Feature", "properties": { "CODIGO": 1005, "NOMBRE": "Marchena", "LAT": 37.334282, "LON": -5.425519, "ACCESIBLE": 2, "DIR": "Avda. Maestro Santos Rúano, 8", "LOCALIDAD": "MARCHENA", "PROV": "SEVILLA", "CERC": 0, "NIVEL": 3, "ATENDO": 0}, "geometry": { "type": "Point", "coordinates": [ -5.425519, 37.334282 ] } },
{ "type": "Feature", "properties": { "CODIGO": 55015, "NOMBRE": "Jimena de La Frontera", "LAT": 36.4242, "LON": -5.434113, "ACCESIBLE": 2, "DIR": "C/ Juan de Dios, 15", "LOCALIDAD": "JIMENA DE LA FRONTERA", "PROV": "CÁDIZ", "CERC": 0, "NIVEL": 3, "ATENDO": 0}, "geometry": { "type": "Point", "coordinates": [ -5.434113, 36.4242 ] } },
{ "type": "Feature", "properties": { "CODIGO": 55012, "NOMBRE": "Cortes de La Frontera", "LAT": 36.597364, "LON": -5.332784, "ACCESIBLE": 2, "DIR": "Avda. Llano de la Estación, S/N", "LOCALIDAD": "CORTES DE LA FRONTERA", "PROV": "MÁLAGA", "CERC": 0, "NIVEL": 3, "ATENDO": 0}, "geometry": { "type": "Point", "coordinates": [ -5.332784, 36.597364 ] } },
{ "type": "Feature", "properties": { "CODIGO": 55003, "NOMBRE": "Almargen-Cañete La Real", "LAT": 37.000985, "LON": -5.020111, "ACCESIBLE": 2, "DIR": "C/ Cortina Estación, 1b", "LOCALIDAD": "ALMARGEN", "PROV": "MÁLAGA", "CERC": 0, "NIVEL": 3, "ATENDO": 0}, "geometry": { "type": "Point", "coordinates": [ -5.020111, 37.000985 ] } },
{ "type": "Feature", "properties": { "CODIGO": 55001, "NOMBRE": "Campillos", "LAT": 37.032231, "LON": -4.863499, "ACCESIBLE": 2, "DIR": "Ctra. Estación Ferrocarril, S/N", "LOCALIDAD": "CAMPILLOS", "PROV": "MÁLAGA", "CERC": 0, "NIVEL": 3, "ATENDO": 0}, "geometry": { "type": "Point", "coordinates": [ -4.863499, 37.032231 ] } },
{ "type": "Feature", "properties": { "CODIGO": 55008, "NOMBRE": "Arriate", "LAT": 36.7905949, "LON": -5.140757, "ACCESIBLE": 2, "DIR": "Ctra. Ma -7400 - Estación Ferrocarril, S/N", "LOCALIDAD": "ARRIATE", "PROV": "MÁLAGA", "CERC": 0, "NIVEL": 3, "ATENDO": 0}, "geometry": { "type": "Point", "coordinates": [ -5.140757, 36.790595 ] } },
{ "type": "Feature", "properties": { "CODIGO": 55005, "NOMBRE": "Setenil", "LAT": 36.863423, "LON": -5.121375, "ACCESIBLE": 2, "DIR": "Ctra. Ca-414 - Estación de Ferrocarril, S/N", "LOCALIDAD": "SETENIL DE LAS BODEGAS", "PROV": "CÁDIZ", "CERC": 0, "NIVEL": 3, "ATENDO": 0}, "geometry": { "type": "Point", "coordinates": [ -5.121375, 36.863423 ] } },
{ "type": "Feature", "properties": { "CODIGO": 42020, "NOMBRE": "Gibraleon", "LAT": 37.36852, "LON": -6.96207, "ACCESIBLE": 2, "DIR": "C/ Guadiana, 6", "LOCALIDAD": "GIBRALEÓN", "PROV": "HUELVA", "CERC": 0, "NIVEL": 3, "ATENDO": 0}, "geometry": { "type": "Point", "coordinates": [ -6.96207, 37.36852 ] } },
{ "type": "Feature", "properties": { "CODIGO": 42019, "NOMBRE": "Belmonte", "LAT": 37.461864, "LON": -6.947533, "ACCESIBLE": 2, "DIR": "Ctra. N - 431 --- Estación Ferrocarril, S/N", "LOCALIDAD": "GIBRALEÓN", "PROV": "HUELVA", "CERC": 0, "NIVEL": 3, "ATENDO": 0}, "geometry": { "type": "Point", "coordinates": [ -6.947533, 37.461864 ] } },
{ "type": "Feature", "properties": { "CODIGO": 42016, "NOMBRE": "Los Milanos", "LAT": 37.586219, "LON": -6.919938, "ACCESIBLE": 2, "DIR": "Ctra. H - 9020 --- Estación Ferrocarril, S/N", "LOCALIDAD": "CALAÑAS", "PROV": "HUELVA", "CERC": 0, "NIVEL": 3, "ATENDO": 0}, "geometry": { "type": "Point", "coordinates": [ -6.919938, 37.586219 ] } },
{ "type": "Feature", "properties": { "CODIGO": 42015, "NOMBRE": "Calañas", "LAT": 37.652007, "LON": -6.875841, "ACCESIBLE": 2, "DIR": "Paseo Ramon Regajo, S/N", "LOCALIDAD": "CALAÑAS", "PROV": "HUELVA", "CERC": 0, "NIVEL": 3, "ATENDO": 0}, "geometry": { "type": "Point", "coordinates": [ -6.875841, 37.652007 ] } },
{ "type": "Feature", "properties": { "CODIGO": 42012, "NOMBRE": "Valdelamusa", "LAT": 37.787111, "LON": -6.873729, "ACCESIBLE": 2, "DIR": "Ctra. Hu-6102 - Estación Ferrocarril, S/N", "LOCALIDAD": "CORTEGANA", "PROV": "HUELVA", "CERC": 0, "NIVEL": 3, "ATENDO": 0}, "geometry": { "type": "Point", "coordinates": [ -6.873729, 37.787111 ] } },
{ "type": "Feature", "properties": { "CODIGO": 42009, "NOMBRE": "Almonaster-Cortegana", "LAT": 37.901174, "LON": -6.797372, "ACCESIBLE": 2, "DIR": "C/ Aldea Estación Almter, S/N", "LOCALIDAD": "ALMONASTER LA REAL", "PROV": "HUELVA", "CERC": 0, "NIVEL": 3, "ATENDO": 0}, "geometry": { "type": "Point", "coordinates": [ -6.797372, 37.901174 ] } },
{ "type": "Feature", "properties": { "CODIGO": 54517, "NOMBRE": "Málaga Centro Alameda", "LAT": 36.7159539, "LON": -4.4265335, "ACCESIBLE": 2, "DIR": "Avda. de la Aurora, S/N", "LOCALIDAD": "MÁLAGA", "PROV": "MÁLAGA", "CERC": 1, "NIVEL": 1, "ATENDO": 0}, "geometry": { "type": "Point", "coordinates": [ -4.426533, 36.715954 ] } },
{ "type": "Feature", "properties": { "CODIGO": 54501, "NOMBRE": "Victoria Kent", "LAT": 36.7012229, "LON": -4.4544145, "ACCESIBLE": 1, "DIR": "Platero Francisco Vazquez, S/N.", "LOCALIDAD": "MÁLAGA", "PROV": "MÁLAGA", "CERC": 1, "NIVEL": 3, "ATENDO": 0}, "geometry": { "type": "Point", "coordinates": [ -4.454415, 36.701223 ] } },
{ "type": "Feature", "properties": { "CODIGO": 54410, "NOMBRE": "Campanillas", "LAT": 36.7050436, "LON": -4.5454825, "ACCESIBLE": 2, "DIR": "Camino Antiguo de Cártama S/N, Málaga", "LOCALIDAD": "MÁLAGA", "PROV": "MÁLAGA", "CERC": 1, "NIVEL": 3, "ATENDO": 0}, "geometry": { "type": "Point", "coordinates": [ -4.545483, 36.705044 ] } },
{ "type": "Feature", "properties": { "CODIGO": 54408, "NOMBRE": "Cártama", "LAT": 36.7337392, "LON": -4.6083966, "ACCESIBLE": 2, "DIR": "Barriada Garcia Agua, S/N", "LOCALIDAD": "CÁRTAMA", "PROV": "MÁLAGA", "CERC": 1, "NIVEL": 3, "ATENDO": 0}, "geometry": { "type": "Point", "coordinates": [ -4.608397, 36.733739 ] } },
{ "type": "Feature", "properties": { "CODIGO": 54406, "NOMBRE": "Pizarra", "LAT": 36.7641515, "LON": -4.7118313, "ACCESIBLE": 2, "DIR": "Pza. de la Estación,  S/N.", "LOCALIDAD": "PIZARRA", "PROV": "MÁLAGA", "CERC": 1, "NIVEL": 3, "ATENDO": 0}, "geometry": { "type": "Point", "coordinates": [ -4.711831, 36.764151 ] } },
{ "type": "Feature", "properties": { "CODIGO": 54405, "NOMBRE": "álora", "LAT": 36.8198747, "LON": -4.6996105, "ACCESIBLE": 2, "DIR": "Camino de la Estación, S/N", "LOCALIDAD": "ÁLORA", "PROV": "MÁLAGA", "CERC": 1, "NIVEL": 3, "ATENDO": 0}, "geometry": { "type": "Point", "coordinates": [ -4.699611, 36.819875 ] } },
{ "type": "Feature", "properties": { "CODIGO": 50413, "NOMBRE": "Alcolea de Cordoba (apt)", "LAT": 37.922326, "LON": -4.694751, "ACCESIBLE": 2, "DIR": "Ctra. N - Iv - Madrid - Cádiz - Estación Ferrocarril, S/N", "LOCALIDAD": "CÓRDOBA", "PROV": "CÓRDOBA", "CERC": 0, "NIVEL": 1, "ATENDO": 0}, "geometry": { "type": "Point", "coordinates": [ -4.694751, 37.922326 ] } },
{ "type": "Feature", "properties": { "CODIGO": 50417, "NOMBRE": "Campus Universitario Rabanales/ Cordoba", "LAT": 37.91256, "LON": -4.72086, "ACCESIBLE": 1, "DIR": "C/ Estación Ferrocarril, S/N", "LOCALIDAD": "CÓRDOBA", "PROV": "CÓRDOBA", "CERC": 0, "NIVEL": 1, "ATENDO": 1}, "geometry": { "type": "Point", "coordinates": [ -4.72086, 37.91256 ] } },
{ "type": "Feature", "properties": { "CODIGO": 50502, "NOMBRE": "Villarrubia de Cordoba", "LAT": 37.847574, "LON": -4.915339, "ACCESIBLE": 2, "DIR": "Pza. Azucarera San Rafael, S/N", "LOCALIDAD": "CÓRDOBA", "PROV": "CÓRDOBA", "CERC": 0, "NIVEL": 1, "ATENDO": 0}, "geometry": { "type": "Point", "coordinates": [ -4.915339, 37.847574 ] } },
{ "type": "Feature", "properties": { "CODIGO": 56308, "NOMBRE": "Gador", "LAT": 36.951624, "LON": -2.487658, "ACCESIBLE": 2, "DIR": "Ctra. Al - 3411 --- C/ Retiro, S/N", "LOCALIDAD": "GÁDOR", "PROV": "ALMERÍA", "CERC": 0, "NIVEL": 3, "ATENDO": 0}, "geometry": { "type": "Point", "coordinates": [ -2.487658, 36.951624 ] } },
{ "type": "Feature", "properties": { "CODIGO": 56301, "NOMBRE": "Fiñana", "LAT": 37.184647, "LON": -2.839757, "ACCESIBLE": 2, "DIR": "Ctra. Al - 6401 --- Diseminado Cortijo Faz,s/n", "LOCALIDAD": "FIÑANA", "PROV": "ALMERÍA", "CERC": 0, "NIVEL": 3, "ATENDO": 0}, "geometry": { "type": "Point", "coordinates": [ -2.839757, 37.184647 ] } },
{ "type": "Feature", "properties": { "CODIGO": 56103, "NOMBRE": "Benalua de Guadix", "LAT": 37.345277, "LON": -3.163177, "ACCESIBLE": 2, "DIR": "Avda. Llano de la Estación, S/N", "LOCALIDAD": "BENALÚA", "PROV": "GRANADA", "CERC": 0, "NIVEL": 3, "ATENDO": 0}, "geometry": { "type": "Point", "coordinates": [ -3.163177, 37.345277 ] } },
{ "type": "Feature", "properties": { "CODIGO": 17000, "NOMBRE": "Madrid-Chamartín-Clara Campoamor", "LAT": 40.4711789, "LON": -3.6829524, "ACCESIBLE": 1, "DIR": "C/ Agustin de Foxa, S/N", "LOCALIDAD": "MADRID", "PROV": "MADRID", "CERC": 1, "NIVEL": 1, "ATENDO": 1}, "geometry": { "type": "Point", "coordinates": [ -3.682952, 40.471179 ] } },
{ "type": "Feature", "properties": { "CODIGO": 37606, "NOMBRE": "Badajoz", "LAT": 38.890696, "LON": -6.981753, "ACCESIBLE": 1, "DIR": "Calle Carmelo Vera Domenech S/N, Badajoz", "LOCALIDAD": "BADAJOZ", "PROV": "BADAJOZ", "CERC": 0, "NIVEL": 1, "ATENDO": 1}, "geometry": { "type": "Point", "coordinates": [ -6.981753, 38.890696 ] } },
{ "type": "Feature", "properties": { "CODIGO": 37603, "NOMBRE": "Montijo", "LAT": 38.913539, "LON": -6.598577, "ACCESIBLE": 2, "DIR": "Avda. Estación Ferrocarril, S/N", "LOCALIDAD": "MONTIJO", "PROV": "BADAJOZ", "CERC": 0, "NIVEL": 3, "ATENDO": 1}, "geometry": { "type": "Point", "coordinates": [ -6.598577, 38.913539 ] } },
{ "type": "Feature", "properties": { "CODIGO": 37500, "NOMBRE": "Mérida", "LAT": 38.921503, "LON": -6.343794, "ACCESIBLE": 1, "DIR": "C/ Cardero, S/N", "LOCALIDAD": "MÉRIDA", "PROV": "BADAJOZ", "CERC": 0, "NIVEL": 1, "ATENDO": 1}, "geometry": { "type": "Point", "coordinates": [ -6.343794, 38.921503 ] } },
{ "type": "Feature", "properties": { "CODIGO": 35400, "NOMBRE": "Cáceres", "LAT": 39.461131, "LON": -6.385679, "ACCESIBLE": 1, "DIR": "Avda. Juan Pablo Ii, 6", "LOCALIDAD": "CÁCERES", "PROV": "CÁCERES", "CERC": 0, "NIVEL": 1, "ATENDO": 1}, "geometry": { "type": "Point", "coordinates": [ -6.385679, 39.461131 ] } },
{ "type": "Feature", "properties": { "CODIGO": 35206, "NOMBRE": "Navalmoral De La Mata", "LAT": 39.894913, "LON": -5.545607, "ACCESIBLE": 2, "DIR": "Pza. Estación Ferrocarril, 1", "LOCALIDAD": "NAVALMORAL DE LA MATA", "PROV": "CÁCERES", "CERC": 0, "NIVEL": 2, "ATENDO": 1}, "geometry": { "type": "Point", "coordinates": [ -5.545607, 39.894913 ] } },
{ "type": "Feature", "properties": { "CODIGO": 35203, "NOMBRE": "Oropesa De Toledo", "LAT": 39.921746, "LON": -5.186137, "ACCESIBLE": 2, "DIR": "Avda. Estación Ferrocarril, S/N", "LOCALIDAD": "OROPESA", "PROV": "TOLEDO", "CERC": 0, "NIVEL": 2, "ATENDO": 1}, "geometry": { "type": "Point", "coordinates": [ -5.186137, 39.921746 ] } },
{ "type": "Feature", "properties": { "CODIGO": 35105, "NOMBRE": "Torrijos", "LAT": 39.979003, "LON": -4.283037, "ACCESIBLE": 2, "DIR": "Avda. Estación Ferrocarril, S/N", "LOCALIDAD": "TORRIJOS", "PROV": "TOLEDO", "CERC": 0, "NIVEL": 2, "ATENDO": 0}, "geometry": { "type": "Point", "coordinates": [ -4.283037, 39.979003 ] } },
{ "type": "Feature", "properties": { "CODIGO": 18000, "NOMBRE": "Madrid - Atocha Cercanías", "LAT": 40.4066191, "LON": -3.6894391, "ACCESIBLE": 1, "DIR": "C/  Glorieta del Emperador Carlos V, 3", "LOCALIDAD": "MADRID", "PROV": "MADRID", "CERC": 1, "NIVEL": 1, "ATENDO": 1}, "geometry": { "type": "Point", "coordinates": [ -3.689439, 40.406619 ] } },
{ "type": "Feature", "properties": { "CODIGO": 35001, "NOMBRE": "Leganés", "LAT": 40.328643, "LON": -3.7713161, "ACCESIBLE": 2, "DIR": "C/ Santa Rosa, 10 --- C/ Virgen del Camino, S/N", "LOCALIDAD": "LEGANÉS", "PROV": "MADRID", "CERC": 1, "NIVEL": 2, "ATENDO": 0}, "geometry": { "type": "Point", "coordinates": [ -3.771316, 40.328643 ] } },
{ "type": "Feature", "properties": { "CODIGO": 30002, "NOMBRE": "Plasencia", "LAT": 40.022282, "LON": -6.099397, "ACCESIBLE": 2, "DIR": "C/ Alfonso Camargo, S/N", "LOCALIDAD": "PLASENCIA", "PROV": "CÁCERES", "CERC": 0, "NIVEL": 1, "ATENDO": 1}, "geometry": { "type": "Point", "coordinates": [ -6.099397, 40.022282 ] } },
{ "type": "Feature", "properties": { "CODIGO": 56312, "NOMBRE": "Almeria", "LAT": 36.834951, "LON": -2.455519, "ACCESIBLE": 1, "DIR": "Pla. Estación Ferrocarril, S/N", "LOCALIDAD": "ALMERÍA", "PROV": "ALMERÍA", "CERC": 0, "NIVEL": 1, "ATENDO": 1}, "geometry": { "type": "Point", "coordinates": [ -2.455519, 36.834951 ] } },
{ "type": "Feature", "properties": { "CODIGO": 56200, "NOMBRE": "Guadix", "LAT": 37.316873, "LON": -3.127209, "ACCESIBLE": 2, "DIR": "Avda. Estación Ferrocarril, S/N", "LOCALIDAD": "GUADIX", "PROV": "GRANADA", "CERC": 0, "NIVEL": 2, "ATENDO": 0}, "geometry": { "type": "Point", "coordinates": [ -3.127209, 37.316873 ] } },
{ "type": "Feature", "properties": { "CODIGO": 56100, "NOMBRE": "Moreda", "LAT": 37.431216, "LON": -3.310516, "ACCESIBLE": 2, "DIR": "Ctra. Gr-4101 - Estación de Ferrocarril, 26", "LOCALIDAD": "MORELÁBOR", "PROV": "GRANADA", "CERC": 0, "NIVEL": 3, "ATENDO": 0}, "geometry": { "type": "Point", "coordinates": [ -3.310516, 37.431216 ] } },
{ "type": "Feature", "properties": { "CODIGO": 56004, "NOMBRE": "Jodar-Ubeda", "LAT": 37.913343, "LON": -3.34892, "ACCESIBLE": 2, "DIR": "Ctra. A - 401 --- Estación de Ferrocarril, S/N", "LOCALIDAD": "JÓDAR", "PROV": "JAÉN", "CERC": 0, "NIVEL": 3, "ATENDO": 0}, "geometry": { "type": "Point", "coordinates": [ -3.34892, 37.913343 ] } },
{ "type": "Feature", "properties": { "CODIGO": 50300, "NOMBRE": "Linares-Baeza", "LAT": 38.068864, "LON": -3.589396, "ACCESIBLE": 1, "DIR": "Pla. de las Palmeras, S/N", "LOCALIDAD": "LINARES", "PROV": "JAÉN", "CERC": 0, "NIVEL": 1, "ATENDO": 1}, "geometry": { "type": "Point", "coordinates": [ -3.589396, 38.068864 ] } },
{ "type": "Feature", "properties": { "CODIGO": 50207, "NOMBRE": "Vilches", "LAT": 38.215742, "LON": -3.517576, "ACCESIBLE": 2, "DIR": "C/ Estación Ferrocarril, S/N", "LOCALIDAD": "VILCHES", "PROV": "JAÉN", "CERC": 0, "NIVEL": 3, "ATENDO": 0}, "geometry": { "type": "Point", "coordinates": [ -3.517576, 38.215742 ] } },
{ "type": "Feature", "properties": { "CODIGO": 60400, "NOMBRE": "Alcazar de San Juan", "LAT": 39.395628, "LON": -3.205744, "ACCESIBLE": 1, "DIR": "C/ Alvarez Guerra, S/N", "LOCALIDAD": "ALCÁZAR DE SAN JUAN", "PROV": "CIUDAD REAL", "CERC": 0, "NIVEL": 1, "ATENDO": 1}, "geometry": { "type": "Point", "coordinates": [ -3.205744, 39.395628 ] } },
{ "type": "Feature", "properties": { "CODIGO": 11200, "NOMBRE": "Miranda De Ebro", "LAT": 42.691024, "LON": -2.940366, "ACCESIBLE": 1, "DIR": "Pza. Estación Ferrocarril, S/N", "LOCALIDAD": "MIRANDA DE EBRO", "PROV": "BURGOS", "CERC": 1, "NIVEL": 1, "ATENDO": 1}, "geometry": { "type": "Point", "coordinates": [ -2.940366, 42.691024 ] } },
{ "type": "Feature", "properties": { "CODIGO": 13200, "NOMBRE": "Bilbao-Abando Indalecio Prieto", "LAT": 43.2601304, "LON": -2.9285592, "ACCESIBLE": 1, "DIR": "Pla. Circular, 2", "LOCALIDAD": "BILBAO", "PROV": "BIZKAIA", "CERC": 1, "NIVEL": 1, "ATENDO": 1}, "geometry": { "type": "Point", "coordinates": [ -2.928559, 43.26013 ] } },
{ "type": "Feature", "properties": { "CODIGO": 13106, "NOMBRE": "Llodio", "LAT": 43.1423514, "LON": -2.9606511, "ACCESIBLE": 2, "DIR": "C/ Jose Matia, 2", "LOCALIDAD": "LAUDIO/LLODIO", "PROV": "ARABA/ÁLAVA", "CERC": 1, "NIVEL": 3, "ATENDO": 0}, "geometry": { "type": "Point", "coordinates": [ -2.960651, 43.142351 ] } },
{ "type": "Feature", "properties": { "CODIGO": 11511, "NOMBRE": "San Sebastián/Donostia", "LAT": 43.3176961, "LON": -1.9767172, "ACCESIBLE": 1, "DIR": "Paseo de Francia 22, Donosti (Guipuzcoa)", "LOCALIDAD": "DONOSTIA/SAN SEBASTIÁN", "PROV": "GIPUZKOA", "CERC": 1, "NIVEL": 1, "ATENDO": 1}, "geometry": { "type": "Point", "coordinates": [ -1.976717, 43.317696 ] } },
{ "type": "Feature", "properties": { "CODIGO": 11300, "NOMBRE": "Altsasu/Alsasua-Estación", "LAT": 42.894847, "LON": -2.181237, "ACCESIBLE": 2, "DIR": "C/ Estación Ferrocarril, S/N", "LOCALIDAD": "ALTSASU/ALSASUA", "PROV": "NAVARRA", "CERC": 1, "NIVEL": 1, "ATENDO": 0}, "geometry": { "type": "Point", "coordinates": [ -2.181237, 42.894847 ] } },
{ "type": "Feature", "properties": { "CODIGO": 22308, "NOMBRE": "Vigo Guixar", "LAT": 42.2392656, "LON": -8.7146089, "ACCESIBLE": 1, "DIR": "Rúa Areal, S/N", "LOCALIDAD": "VIGO", "PROV": "PONTEVEDRA", "CERC": 0, "NIVEL": 1, "ATENDO": 1}, "geometry": { "type": "Point", "coordinates": [ -8.714609, 42.239266 ] } },
{ "type": "Feature", "properties": { "CODIGO": 22402, "NOMBRE": "Valenca Do Minho", "LAT": 42.024734, "LON": -8.639745, "ACCESIBLE": 2, "DIR": "Avda. do Espanha", "LOCALIDAD": "TUI", "PROV": "PONTEVEDRA", "CERC": 0, "NIVEL": 1, "ATENDO": 0}, "geometry": { "type": "Point", "coordinates": [ -8.639745, 42.024734 ] } },
{ "type": "Feature", "properties": { "CODIGO": 71801, "NOMBRE": "Barcelona-Sants", "LAT": 41.3798632, "LON": 2.14101688, "ACCESIBLE": 1, "DIR": "Pl. Dels Països Catalans, 1 - 7", "LOCALIDAD": "BARCELONA", "PROV": "BARCELONA", "CERC": 1, "NIVEL": 1, "ATENDO": 1}, "geometry": { "type": "Point", "coordinates": [ 2.141017, 41.379863 ] } },
{ "type": "Feature", "properties": { "CODIGO": 4104, "NOMBRE": "Camp Tarragona", "LAT": 41.192066, "LON": 1.272666, "ACCESIBLE": 1, "DIR": "C/ Mas L'Hereuet, S/N", "LOCALIDAD": "TARRAGONA", "PROV": "TARRAGONA", "CERC": 1, "NIVEL": 1, "ATENDO": 1}, "geometry": { "type": "Point", "coordinates": [ 1.272666, 41.192066 ] } },
{ "type": "Feature", "properties": { "CODIGO": 78400, "NOMBRE": "Lleida-Pirineus", "LAT": 41.62013, "LON": 0.63365328, "ACCESIBLE": 1, "DIR": "Pl. Berenguer Iv, S/N", "LOCALIDAD": "LLEIDA", "PROV": "LLEIDA", "CERC": 1, "NIVEL": 1, "ATENDO": 1}, "geometry": { "type": "Point", "coordinates": [ 0.633653, 41.62013 ] } },
{ "type": "Feature", "properties": { "CODIGO": 81202, "NOMBRE": "Tudela De Navarra", "LAT": 42.059434, "LON": -1.597931, "ACCESIBLE": 1, "DIR": "Pza. Estación Ferrocarril, S/N", "LOCALIDAD": "TUDELA", "PROV": "NAVARRA", "CERC": 0, "NIVEL": 1, "ATENDO": 1}, "geometry": { "type": "Point", "coordinates": [ -1.597931, 42.059434 ] } },
{ "type": "Feature", "properties": { "CODIGO": 81108, "NOMBRE": "Calahorra", "LAT": 42.310458, "LON": -1.957755, "ACCESIBLE": 2, "DIR": "Avda. Estación Ferrocarril, S/N", "LOCALIDAD": "CALAHORRA", "PROV": "RIOJA, LA", "CERC": 0, "NIVEL": 2, "ATENDO": 1}, "geometry": { "type": "Point", "coordinates": [ -1.957755, 42.310458 ] } },
{ "type": "Feature", "properties": { "CODIGO": 81002, "NOMBRE": "Haro", "LAT": 42.583635, "LON": -2.849396, "ACCESIBLE": 2, "DIR": "C/ Estación Ferrocarril, S/N", "LOCALIDAD": "HARO", "PROV": "RIOJA, LA", "CERC": 0, "NIVEL": 3, "ATENDO": 0}, "geometry": { "type": "Point", "coordinates": [ -2.849396, 42.583635 ] } },
{ "type": "Feature", "properties": { "CODIGO": 65000, "NOMBRE": "Valencia-Estaciò Del Nord", "LAT": 39.4669305, "LON": -0.3772239, "ACCESIBLE": 1, "DIR": "C/ Xativa, 24", "LOCALIDAD": "VALENCIA", "PROV": "VALENCIA/VALÈNCIA", "CERC": 1, "NIVEL": 1, "ATENDO": 1}, "geometry": { "type": "Point", "coordinates": [ -0.377224, 39.46693 ] } },
{ "type": "Feature", "properties": { "CODIGO": 65312, "NOMBRE": "Vinaròs", "LAT": 40.471682, "LON": 0.455727, "ACCESIBLE": 1, "DIR": "Pza. Estación Ferrocarril, S/N", "LOCALIDAD": "VINARÒS", "PROV": "CASTELLÓN/CASTELLÓ", "CERC": 1, "NIVEL": 1, "ATENDO": 1}, "geometry": { "type": "Point", "coordinates": [ 0.455727, 40.471682 ] } },
{ "type": "Feature", "properties": { "CODIGO": 65300, "NOMBRE": "Castelló", "LAT": 39.9884736, "LON": -0.0523456, "ACCESIBLE": 1, "DIR": "C/pintor Oliet, S/N", "LOCALIDAD": "CASTELLÓN DE LA PLANA/CASTELLÓ DE LA PLANA", "PROV": "CASTELLÓN/CASTELLÓ", "CERC": 1, "NIVEL": 1, "ATENDO": 1}, "geometry": { "type": "Point", "coordinates": [ -0.052346, 39.988474 ] } },
{ "type": "Feature", "properties": { "CODIGO": 80108, "NOMBRE": "Tafalla", "LAT": 42.525756, "LON": -1.671467, "ACCESIBLE": 2, "DIR": "Ctra. Na-132 - Paseo de las Ruedas, S/N", "LOCALIDAD": "TAFALLA", "PROV": "NAVARRA", "CERC": 0, "NIVEL": 2, "ATENDO": 1}, "geometry": { "type": "Point", "coordinates": [ -1.671467, 42.525756 ] } },
{ "type": "Feature", "properties": { "CODIGO": 20309, "NOMBRE": "Lugo", "LAT": 43.015222, "LON": -7.552176, "ACCESIBLE": 1, "DIR": "Pla. de Conde Fontao, S/N", "LOCALIDAD": "LUGO", "PROV": "LUGO", "CERC": 0, "NIVEL": 1, "ATENDO": 1}, "geometry": { "type": "Point", "coordinates": [ -7.552176, 43.015222 ] } },
{ "type": "Feature", "properties": { "CODIGO": 22100, "NOMBRE": "Ourense", "LAT": 42.350389, "LON": -7.872777, "ACCESIBLE": 1, "DIR": "Avda. Marin, S/N", "LOCALIDAD": "OURENSE", "PROV": "OURENSE", "CERC": 0, "NIVEL": 1, "ATENDO": 1}, "geometry": { "type": "Point", "coordinates": [ -7.872777, 42.350389 ] } },
{ "type": "Feature", "properties": { "CODIGO": 20305, "NOMBRE": "Sarria", "LAT": 42.784049, "LON": -7.418822, "ACCESIBLE": 2, "DIR": "Rúa Ramon Cabanillas, 6", "LOCALIDAD": "SARRIA", "PROV": "LUGO", "CERC": 0, "NIVEL": 3, "ATENDO": 1}, "geometry": { "type": "Point", "coordinates": [ -7.418822, 42.784049 ] } },
{ "type": "Feature", "properties": { "CODIGO": 60000, "NOMBRE": "Madrid Pta.Atocha - Almudena Grandes", "LAT": 40.406442, "LON": -3.690886, "ACCESIBLE": 1, "DIR": "Glorieta Emperador Carlos V, S/N", "LOCALIDAD": "MADRID", "PROV": "MADRID", "CERC": 1, "NIVEL": 1, "ATENDO": 1}, "geometry": { "type": "Point", "coordinates": [ -3.690886, 40.406442 ] } },
{ "type": "Feature", "properties": { "CODIGO": 11014, "NOMBRE": "Burgos Rosa Manzano", "LAT": 42.371197, "LON": -3.666308, "ACCESIBLE": 1, "DIR": "Avda. Principe de Asturias, S/N", "LOCALIDAD": "BURGOS", "PROV": "BURGOS", "CERC": 0, "NIVEL": 1, "ATENDO": 1}, "geometry": { "type": "Point", "coordinates": [ -3.666308, 42.371197 ] } },
{ "type": "Feature", "properties": { "CODIGO": 15100, "NOMBRE": "Leon", "LAT": 42.596048, "LON": -5.582428, "ACCESIBLE": 1, "DIR": "Avda. Palencia, S/N", "LOCALIDAD": "LEÓN", "PROV": "LEÓN", "CERC": 0, "NIVEL": 1, "ATENDO": 1}, "geometry": { "type": "Point", "coordinates": [ -5.582428, 42.596048 ] } },
{ "type": "Feature", "properties": { "CODIGO": 20111, "NOMBRE": "Bembibre", "LAT": 42.609558, "LON": -6.422048, "ACCESIBLE": 2, "DIR": "C/ Susana Gonzalez, 56", "LOCALIDAD": "BEMBIBRE", "PROV": "LEÓN", "CERC": 0, "NIVEL": 2, "ATENDO": 0}, "geometry": { "type": "Point", "coordinates": [ -6.422048, 42.609558 ] } },
{ "type": "Feature", "properties": { "CODIGO": 20211, "NOMBRE": "O Barco de Valdeorras", "LAT": 42.418301, "LON": -6.98503, "ACCESIBLE": 2, "DIR": "Avda. Estación Ferrocarril, S/N", "LOCALIDAD": "BARCO DE VALDEORRAS (O)", "PROV": "OURENSE", "CERC": 0, "NIVEL": 3, "ATENDO": 1}, "geometry": { "type": "Point", "coordinates": [ -6.98503, 42.418301 ] } },
{ "type": "Feature", "properties": { "CODIGO": 20213, "NOMBRE": "A Rua-Petin", "LAT": 42.39276, "LON": -7.113284, "ACCESIBLE": 2, "DIR": "Rúa Circunvalación, S/N", "LOCALIDAD": "RÚA (A)", "PROV": "OURENSE", "CERC": 0, "NIVEL": 3, "ATENDO": 0}, "geometry": { "type": "Point", "coordinates": [ -7.113284, 42.39276 ] } },
{ "type": "Feature", "properties": { "CODIGO": 20216, "NOMBRE": "San Clodio-Quiroga", "LAT": 42.465271, "LON": -7.287198, "ACCESIBLE": 2, "DIR": "Rúa Do Ferrocarril, 31", "LOCALIDAD": "RIBAS DE SIL", "PROV": "LUGO", "CERC": 0, "NIVEL": 3, "ATENDO": 0}, "geometry": { "type": "Point", "coordinates": [ -7.287198, 42.465271 ] } },
{ "type": "Feature", "properties": { "CODIGO": 22300, "NOMBRE": "Redondela", "LAT": 42.286005, "LON": -8.619402, "ACCESIBLE": 2, "DIR": "Avenida de la Estación, S/N", "LOCALIDAD": "REDONDELA", "PROV": "PONTEVEDRA", "CERC": 0, "NIVEL": 2, "ATENDO": 0}, "geometry": { "type": "Point", "coordinates": [ -8.619402, 42.286005 ] } },
{ "type": "Feature", "properties": { "CODIGO": 22201, "NOMBRE": "O Porriño", "LAT": 42.16419, "LON": -8.62202, "ACCESIBLE": 2, "DIR": "Rúa Estación Ferrocarril, 9", "LOCALIDAD": "PORRIÑO (O)", "PROV": "PONTEVEDRA", "CERC": 0, "NIVEL": 1, "ATENDO": 0}, "geometry": { "type": "Point", "coordinates": [ -8.62202, 42.16419 ] } },
{ "type": "Feature", "properties": { "CODIGO": 31400, "NOMBRE": "Santiago de Compostela", "LAT": 42.870842, "LON": -8.544697, "ACCESIBLE": 1, "DIR": "C/ Horreo, 75 A", "LOCALIDAD": "SANTIAGO DE COMPOSTELA", "PROV": "CORUÑA, A", "CERC": 0, "NIVEL": 1, "ATENDO": 1}, "geometry": { "type": "Point", "coordinates": [ -8.544697, 42.870842 ] } },
{ "type": "Feature", "properties": { "CODIGO": 10600, "NOMBRE": "Valladolid", "LAT": 41.642167, "LON": -4.726986, "ACCESIBLE": 1, "DIR": "C/ Recondo, S/N", "LOCALIDAD": "VALLADOLID", "PROV": "VALLADOLID", "CERC": 0, "NIVEL": 1, "ATENDO": 1}, "geometry": { "type": "Point", "coordinates": [ -4.726986, 41.642167 ] } },
{ "type": "Feature", "properties": { "CODIGO": 10500, "NOMBRE": "Medina Del Campo", "LAT": 41.317617, "LON": -4.909923, "ACCESIBLE": 1, "DIR": "Avda. Estación Ferrocarril, 27", "LOCALIDAD": "MEDINA DEL CAMPO", "PROV": "VALLADOLID", "CERC": 0, "NIVEL": 1, "ATENDO": 1}, "geometry": { "type": "Point", "coordinates": [ -4.909923, 41.317617 ] } },
{ "type": "Feature", "properties": { "CODIGO": 65422, "NOMBRE": "Cambrils", "LAT": 41.0815642, "LON": 1.04603752, "ACCESIBLE": 2, "DIR": "Av. de Charles Robert Darwin, S/N", "LOCALIDAD": "CAMBRILS", "PROV": "TARRAGONA", "CERC": 1, "NIVEL": 2, "ATENDO": 0}, "geometry": { "type": "Point", "coordinates": [ 1.046038, 41.081564 ] } },
{ "type": "Feature", "properties": { "CODIGO": 60500, "NOMBRE": "Villarrobledo", "LAT": 39.260868, "LON": -2.598621, "ACCESIBLE": 2, "DIR": "C/ Juan Ferreira, S/N", "LOCALIDAD": "VILLARROBLEDO", "PROV": "ALBACETE", "CERC": 0, "NIVEL": 2, "ATENDO": 1}, "geometry": { "type": "Point", "coordinates": [ -2.598621, 39.260868 ] } },
{ "type": "Feature", "properties": { "CODIGO": 50100, "NOMBRE": "Manzanares", "LAT": 39.005837, "LON": -3.370507, "ACCESIBLE": 2, "DIR": "Paseo Estación Ferrocarril, S/N", "LOCALIDAD": "MANZANARES", "PROV": "CIUDAD REAL", "CERC": 0, "NIVEL": 2, "ATENDO": 1}, "geometry": { "type": "Point", "coordinates": [ -3.370507, 39.005837 ] } },
{ "type": "Feature", "properties": { "CODIGO": 50400, "NOMBRE": "Espeluy", "LAT": 38.010247, "LON": -3.832726, "ACCESIBLE": 2, "DIR": "Pla. Estación Ferrocarril, 3", "LOCALIDAD": "ESPELÚY", "PROV": "JAÉN", "CERC": 0, "NIVEL": 3, "ATENDO": 1}, "geometry": { "type": "Point", "coordinates": [ -3.832726, 38.010247 ] } },
{ "type": "Feature", "properties": { "CODIGO": 50403, "NOMBRE": "Andujar", "LAT": 38.028225, "LON": -4.066036, "ACCESIBLE": 2, "DIR": "Ctra. Estación Ferrocarril, S/N", "LOCALIDAD": "ANDÚJAR", "PROV": "JAÉN", "CERC": 0, "NIVEL": 3, "ATENDO": 0}, "geometry": { "type": "Point", "coordinates": [ -4.066036, 38.028225 ] } },
{ "type": "Feature", "properties": { "CODIGO": 51300, "NOMBRE": "Jerez De La Frontera", "LAT": 36.680022, "LON": -6.1266032, "ACCESIBLE": 1, "DIR": "Pla. Estación Ferrocarril, S/N", "LOCALIDAD": "JEREZ DE LA FRONTERA", "PROV": "CÁDIZ", "CERC": 1, "NIVEL": 2, "ATENDO": 1}, "geometry": { "type": "Point", "coordinates": [ -6.126603, 36.680022 ] } },
{ "type": "Feature", "properties": { "CODIGO": 51400, "NOMBRE": "Puerto De Santa María", "LAT": 36.6040723, "LON": -6.2179261, "ACCESIBLE": 1, "DIR": "Pza. de la Estación S/N.", "LOCALIDAD": "PUERTO DE SANTA MARÍA (EL)", "PROV": "CÁDIZ", "CERC": 1, "NIVEL": 2, "ATENDO": 1}, "geometry": { "type": "Point", "coordinates": [ -6.217926, 36.604072 ] } },
{ "type": "Feature", "properties": { "CODIGO": 81109, "NOMBRE": "Rincón De Soto", "LAT": 42.230011, "LON": -1.847473, "ACCESIBLE": 2, "DIR": "C/ Estación Ferrocarril, 2", "LOCALIDAD": "RINCÓN DE SOTO", "PROV": "RIOJA, LA", "CERC": 0, "NIVEL": 3, "ATENDO": 0}, "geometry": { "type": "Point", "coordinates": [ -1.847473, 42.230011 ] } },
{ "type": "Feature", "properties": { "CODIGO": 81110, "NOMBRE": "Alfaro", "LAT": 42.186525, "LON": -1.747985, "ACCESIBLE": 2, "DIR": "Avda. de la Vía, S/N", "LOCALIDAD": "ALFARO", "PROV": "RIOJA, LA", "CERC": 0, "NIVEL": 1, "ATENDO": 0}, "geometry": { "type": "Point", "coordinates": [ -1.747985, 42.186525 ] } },
{ "type": "Feature", "properties": { "CODIGO": 60911, "NOMBRE": "Alicante/Alacant", "LAT": 38.3447127, "LON": -0.4955241, "ACCESIBLE": 1, "DIR": "Avda. Salamanca, 1", "LOCALIDAD": "ALICANTE/ALACANT", "PROV": "ALICANTE/ALACANT", "CERC": 1, "NIVEL": 1, "ATENDO": 1}, "geometry": { "type": "Point", "coordinates": [ -0.495524, 38.344713 ] } },
{ "type": "Feature", "properties": { "CODIGO": 65200, "NOMBRE": "Sagunt/Sagunto", "LAT": 39.6758025, "LON": -0.271542, "ACCESIBLE": 1, "DIR": "Estación FF.CC. S/N", "LOCALIDAD": "SAGUNTO/SAGUNT", "PROV": "VALENCIA/VALÈNCIA", "CERC": 1, "NIVEL": 2, "ATENDO": 1}, "geometry": { "type": "Point", "coordinates": [ -0.271542, 39.675803 ] } },
{ "type": "Feature", "properties": { "CODIGO": 65304, "NOMBRE": "Orpesa/Oropesa Del Mar", "LAT": 40.092258, "LON": 0.139861, "ACCESIBLE": 2, "DIR": "Pl. L'Estacio Ferrocarril, S/N", "LOCALIDAD": "OROPESA DEL MAR/ORPESA", "PROV": "CASTELLÓN/CASTELLÓ", "CERC": 1, "NIVEL": 2, "ATENDO": 0}, "geometry": { "type": "Point", "coordinates": [ 0.139861, 40.092258 ] } },
{ "type": "Feature", "properties": { "CODIGO": 71500, "NOMBRE": "Tarragona", "LAT": 41.1115636, "LON": 1.25322776, "ACCESIBLE": 1, "DIR": "Passeig de España, S/N", "LOCALIDAD": "TARRAGONA", "PROV": "TARRAGONA", "CERC": 1, "NIVEL": 1, "ATENDO": 1}, "geometry": { "type": "Point", "coordinates": [ 1.253228, 41.111564 ] } },
{ "type": "Feature", "properties": { "CODIGO": 60905, "NOMBRE": "Elda-Petrer", "LAT": 38.484879, "LON": -0.80109, "ACCESIBLE": 2, "DIR": "C/ Galicia, S/N", "LOCALIDAD": "ELDA", "PROV": "ALICANTE/ALACANT", "CERC": 0, "NIVEL": 2, "ATENDO": 1}, "geometry": { "type": "Point", "coordinates": [ -0.80109, 38.484879 ] } },
{ "type": "Feature", "properties": { "CODIGO": 71210, "NOMBRE": "Flix", "LAT": 41.2293651, "LON": 0.54010012, "ACCESIBLE": 2, "DIR": "Pl. Sant Jaume, S/N", "LOCALIDAD": "FLIX", "PROV": "TARRAGONA", "CERC": 1, "NIVEL": 1, "ATENDO": 0}, "geometry": { "type": "Point", "coordinates": [ 0.5401, 41.229365 ] } },
{ "type": "Feature", "properties": { "CODIGO": 71208, "NOMBRE": "Faió-La Pobla De Massaluca (fayón)", "LAT": 41.2250555, "LON": 0.35110259, "ACCESIBLE": 2, "DIR": "Ctra. Tv - 7231 --- Estació de Ferrocarril, S/N", "LOCALIDAD": "POBLA DE MASSALUCA (LA)", "PROV": "TARRAGONA", "CERC": 0, "NIVEL": 3, "ATENDO": 0}, "geometry": { "type": "Point", "coordinates": [ 0.351103, 41.225056 ] } },
{ "type": "Feature", "properties": { "CODIGO": 71206, "NOMBRE": "Fabara", "LAT": 41.234405, "LON": 0.143284, "ACCESIBLE": 2, "DIR": "Ctra. A - 144 --- Estación de Ferrocarril, S/N", "LOCALIDAD": "FABARA", "PROV": "ZARAGOZA", "CERC": 0, "NIVEL": 3, "ATENDO": 0}, "geometry": { "type": "Point", "coordinates": [ 0.143284, 41.234405 ] } },
{ "type": "Feature", "properties": { "CODIGO": 71204, "NOMBRE": "Caspe", "LAT": 41.239738, "LON": -0.042701, "ACCESIBLE": 2, "DIR": "Pl. Obispo Cubeles, 15", "LOCALIDAD": "CASPE", "PROV": "ZARAGOZA", "CERC": 0, "NIVEL": 3, "ATENDO": 0}, "geometry": { "type": "Point", "coordinates": [ -0.042701, 41.239738 ] } },
{ "type": "Feature", "properties": { "CODIGO": 71201, "NOMBRE": "Samper", "LAT": 41.182183, "LON": -0.368761, "ACCESIBLE": 2, "DIR": "Ctra. Estación Ferrocarril, S/N", "LOCALIDAD": "SAMPER DE CALANDA", "PROV": "TERUEL", "CERC": 0, "NIVEL": 3, "ATENDO": 0}, "geometry": { "type": "Point", "coordinates": [ -0.368761, 41.182183 ] } },
{ "type": "Feature", "properties": { "CODIGO": 71200, "NOMBRE": "La Puebla De Híjar", "LAT": 41.2244, "LON": -0.438595, "ACCESIBLE": 2, "DIR": "Pla. del Reino de Aragon, 1", "LOCALIDAD": "PUEBLA DE HÍJAR (LA)", "PROV": "TERUEL", "CERC": 0, "NIVEL": 3, "ATENDO": 0}, "geometry": { "type": "Point", "coordinates": [ -0.438595, 41.2244 ] } },
{ "type": "Feature", "properties": { "CODIGO": 71108, "NOMBRE": "La Zaida-Sástago", "LAT": 41.320542, "LON": -0.427115, "ACCESIBLE": 2, "DIR": "Av. Zaragoza, S/N", "LOCALIDAD": "ZAIDA (LA)", "PROV": "ZARAGOZA", "CERC": 0, "NIVEL": 3, "ATENDO": 0}, "geometry": { "type": "Point", "coordinates": [ -0.427115, 41.320542 ] } },
{ "type": "Feature", "properties": { "CODIGO": 71105, "NOMBRE": "Quinto", "LAT": 41.419528, "LON": -0.490673, "ACCESIBLE": 2, "DIR": "C/ Camino de la Estación, S/N", "LOCALIDAD": "QUINTO", "PROV": "ZARAGOZA", "CERC": 0, "NIVEL": 3, "ATENDO": 0}, "geometry": { "type": "Point", "coordinates": [ -0.490673, 41.419528 ] } },
{ "type": "Feature", "properties": { "CODIGO": 70806, "NOMBRE": "Zaragoza Portillo", "LAT": 41.6527361, "LON": -0.8958759, "ACCESIBLE": 1, "DIR": "C/. Manuel Escoriaza y Fabro S/N", "LOCALIDAD": "ZARAGOZA", "PROV": "ZARAGOZA", "CERC": 1, "NIVEL": 2, "ATENDO": 0}, "geometry": { "type": "Point", "coordinates": [ -0.895876, 41.652736 ] } },
{ "type": "Feature", "properties": { "CODIGO": 71100, "NOMBRE": "Zaragoza Miraflores", "LAT": 41.6334311, "LON": -0.8681653, "ACCESIBLE": 1, "DIR": "Camino del Junco 160", "LOCALIDAD": "ZARAGOZA", "PROV": "ZARAGOZA", "CERC": 1, "NIVEL": 1, "ATENDO": 0}, "geometry": { "type": "Point", "coordinates": [ -0.868165, 41.633431 ] } },
{ "type": "Feature", "properties": { "CODIGO": 71306, "NOMBRE": "Riudecanyes-Botarell", "LAT": 41.1400577, "LON": 0.97574775, "ACCESIBLE": 2, "DIR": "Ctra. T-3131 - Estació Ferrocarril, S/N", "LOCALIDAD": "RIUDECANYES", "PROV": "TARRAGONA", "CERC": 1, "NIVEL": 3, "ATENDO": 0}, "geometry": { "type": "Point", "coordinates": [ 0.975748, 41.140058 ] } },
{ "type": "Feature", "properties": { "CODIGO": 71305, "NOMBRE": "Duesaigües-L'argentera", "LAT": 41.1436928, "LON": 0.92087096, "ACCESIBLE": 2, "DIR": "Ctra. T - 343 --- Estación Ferrocarril, S/N", "LOCALIDAD": "ARGENTERA (L')", "PROV": "TARRAGONA", "CERC": 1, "NIVEL": 3, "ATENDO": 0}, "geometry": { "type": "Point", "coordinates": [ 0.920871, 41.143693 ] } },
{ "type": "Feature", "properties": { "CODIGO": 71304, "NOMBRE": "Pradell", "LAT": 41.1333595, "LON": 0.85865032, "ACCESIBLE": 2, "DIR": "Ctra. Tv-3223 - Estació Ferrocarril, S/N", "LOCALIDAD": "PRADELL DE LA TEIXETA", "PROV": "TARRAGONA", "CERC": 1, "NIVEL": 3, "ATENDO": 0}, "geometry": { "type": "Point", "coordinates": [ 0.85865, 41.133359 ] } },
{ "type": "Feature", "properties": { "CODIGO": 73001, "NOMBRE": "Puigverd De Lleida-Artesa De Lleida", "LAT": 41.5537015, "LON": 0.73342706, "ACCESIBLE": 2, "DIR": "Ctra. Lv-7022 - Estació Ferrocarril, 6", "LOCALIDAD": "PUIGVERD DE LLEIDA", "PROV": "LLEIDA", "CERC": 1, "NIVEL": 3, "ATENDO": 0}, "geometry": { "type": "Point", "coordinates": [ 0.733427, 41.553702 ] } },
{ "type": "Feature", "properties": { "CODIGO": 73002, "NOMBRE": "Juneda", "LAT": 41.5439328, "LON": 0.82554185, "ACCESIBLE": 2, "DIR": "C/ de Prat de la Riba, S/N", "LOCALIDAD": "JUNEDA", "PROV": "LLEIDA", "CERC": 1, "NIVEL": 3, "ATENDO": 0}, "geometry": { "type": "Point", "coordinates": [ 0.825542, 41.543933 ] } },
{ "type": "Feature", "properties": { "CODIGO": 73007, "NOMBRE": "L'espluga De Francolí", "LAT": 41.4006616, "LON": 1.10336094, "ACCESIBLE": 2, "DIR": "Camí de L'Estació Ferrorarril, S/N", "LOCALIDAD": "ESPLUGA DE FRANCOLÍ (L')", "PROV": "TARRAGONA", "CERC": 1, "NIVEL": 3, "ATENDO": 0}, "geometry": { "type": "Point", "coordinates": [ 1.103361, 41.400662 ] } },
{ "type": "Feature", "properties": { "CODIGO": 73009, "NOMBRE": "Vilaverd", "LAT": 41.3376633, "LON": 1.17653235, "ACCESIBLE": 2, "DIR": "C/ Major, S/N", "LOCALIDAD": "VILAVERD", "PROV": "TARRAGONA", "CERC": 1, "NIVEL": 3, "ATENDO": 0}, "geometry": { "type": "Point", "coordinates": [ 1.176532, 41.337663 ] } },
{ "type": "Feature", "properties": { "CODIGO": 73101, "NOMBRE": "Alcover", "LAT": 41.2616066, "LON": 1.17416002, "ACCESIBLE": 2, "DIR": "Passeig de la Estacio, S/N", "LOCALIDAD": "ALCOVER", "PROV": "TARRAGONA", "CERC": 1, "NIVEL": 3, "ATENDO": 0}, "geometry": { "type": "Point", "coordinates": [ 1.17416, 41.261607 ] } },
{ "type": "Feature", "properties": { "CODIGO": 73102, "NOMBRE": "La Selva Del Camp", "LAT": 41.2111544, "LON": 1.14396003, "ACCESIBLE": 2, "DIR": "Passeig L'Estació Ferrocarril, S/N", "LOCALIDAD": "SELVA DEL CAMP (LA)", "PROV": "TARRAGONA", "CERC": 1, "NIVEL": 3, "ATENDO": 0}, "geometry": { "type": "Point", "coordinates": [ 1.14396, 41.211154 ] } },
{ "type": "Feature", "properties": { "CODIGO": 65411, "NOMBRE": "Salou - Port Aventura", "LAT": 41.0884798, "LON": 1.14605195, "ACCESIBLE": 2, "DIR": "Avenida del 30 Doctubre, S/N", "LOCALIDAD": "SALOU", "PROV": "TARRAGONA", "CERC": 1, "NIVEL": 1, "ATENDO": 1}, "geometry": { "type": "Point", "coordinates": [ 1.146052, 41.08848 ] } },
{ "type": "Feature", "properties": { "CODIGO": 71205, "NOMBRE": "Val De Pilas", "LAT": 41.230056, "LON": 0.070145, "ACCESIBLE": 2, "DIR": "Camino de la Fresa - Estación Ferrocarril, S/N", "LOCALIDAD": "CASPE", "PROV": "ZARAGOZA", "CERC": 0, "NIVEL": 3, "ATENDO": 0}, "geometry": { "type": "Point", "coordinates": [ 0.070145, 41.230056 ] } },
{ "type": "Feature", "properties": { "CODIGO": 72101, "NOMBRE": "Roda De Mar", "LAT": 41.1864204, "LON": 1.45520767, "ACCESIBLE": 2, "DIR": "C/ Les Flores, S/N", "LOCALIDAD": "RODA DE BARÀ", "PROV": "TARRAGONA", "CERC": 1, "NIVEL": 3, "ATENDO": 0}, "geometry": { "type": "Point", "coordinates": [ 1.455208, 41.18642 ] } },
{ "type": "Feature", "properties": { "CODIGO": 76001, "NOMBRE": "Salomó", "LAT": 41.2234416, "LON": 1.37662504, "ACCESIBLE": 2, "DIR": "Ctra. T-202 - Estació Ferrocarril, S/N", "LOCALIDAD": "SALOMÓ", "PROV": "TARRAGONA", "CERC": 1, "NIVEL": 3, "ATENDO": 0}, "geometry": { "type": "Point", "coordinates": [ 1.376625, 41.223442 ] } },
{ "type": "Feature", "properties": { "CODIGO": 76003, "NOMBRE": "Nulles-Bràfim", "LAT": 41.2503192, "LON": 1.29750259, "ACCESIBLE": 2, "DIR": "Passeig de L'Estació Ferrocarril, 1", "LOCALIDAD": "NULLES", "PROV": "TARRAGONA", "CERC": 1, "NIVEL": 3, "ATENDO": 0}, "geometry": { "type": "Point", "coordinates": [ 1.297503, 41.250319 ] } },
{ "type": "Feature", "properties": { "CODIGO": 76004, "NOMBRE": "Valls", "LAT": 41.2896079, "LON": 1.25865179, "ACCESIBLE": 2, "DIR": "Pl. de L'Estació, S/N", "LOCALIDAD": "VALLS", "PROV": "TARRAGONA", "CERC": 1, "NIVEL": 3, "ATENDO": 0}, "geometry": { "type": "Point", "coordinates": [ 1.258652, 41.289608 ] } },
{ "type": "Feature", "properties": { "CODIGO": 78302, "NOMBRE": "Binefar", "LAT": 41.849768, "LON": 0.291478, "ACCESIBLE": 2, "DIR": "Avda. de Aragon, S/N", "LOCALIDAD": "BINÉFAR", "PROV": "HUESCA", "CERC": 0, "NIVEL": 1, "ATENDO": 0}, "geometry": { "type": "Point", "coordinates": [ 0.291478, 41.849768 ] } },
{ "type": "Feature", "properties": { "CODIGO": 78203, "NOMBRE": "Sariñena", "LAT": 41.817529, "LON": -0.17076, "ACCESIBLE": 2, "DIR": "Barrio Estación Ferrocarril, S/N", "LOCALIDAD": "SARIÑENA", "PROV": "HUESCA", "CERC": 0, "NIVEL": 3, "ATENDO": 0}, "geometry": { "type": "Point", "coordinates": [ -0.17076, 41.817529 ] } },
{ "type": "Feature", "properties": { "CODIGO": 78402, "NOMBRE": "Bell-Lloc D'urgell", "LAT": 41.631619, "LON": 0.781547, "ACCESIBLE": 2, "DIR": "C/ de L'Estació, S/N", "LOCALIDAD": "BELL-LLOC D'URGELL", "PROV": "LLEIDA", "CERC": 1, "NIVEL": 2, "ATENDO": 0}, "geometry": { "type": "Point", "coordinates": [ 0.781547, 41.631619 ] } },
{ "type": "Feature", "properties": { "CODIGO": 78404, "NOMBRE": "Golmés", "LAT": 41.635929, "LON": 0.930863, "ACCESIBLE": 2, "DIR": "Passeig L'Estació Ferrocarril, S/N", "LOCALIDAD": "GOLMÉS", "PROV": "LLEIDA", "CERC": 1, "NIVEL": 2, "ATENDO": 0}, "geometry": { "type": "Point", "coordinates": [ 0.930863, 41.635929 ] } },
{ "type": "Feature", "properties": { "CODIGO": 78406, "NOMBRE": "Bellpuig", "LAT": 41.632545, "LON": 1.012993, "ACCESIBLE": 2, "DIR": "Av. de Lleida, S/N", "LOCALIDAD": "BELLPUIG", "PROV": "LLEIDA", "CERC": 1, "NIVEL": 2, "ATENDO": 0}, "geometry": { "type": "Point", "coordinates": [ 1.012993, 41.632545 ] } },
{ "type": "Feature", "properties": { "CODIGO": 78407, "NOMBRE": "Anglesola", "LAT": 41.646448, "LON": 1.079192, "ACCESIBLE": 2, "DIR": "Ctra. Lv- 3342 - Estació Ferrocarril, S/N", "LOCALIDAD": "ANGLESOLA", "PROV": "LLEIDA", "CERC": 1, "NIVEL": 2, "ATENDO": 0}, "geometry": { "type": "Point", "coordinates": [ 1.079192, 41.646448 ] } },
{ "type": "Feature", "properties": { "CODIGO": 78700, "NOMBRE": "Terrassa Estacio Nord", "LAT": 41.5697825, "LON": 2.01435428, "ACCESIBLE": 2, "DIR": "Pl. Estació del Nord, S/N", "LOCALIDAD": "TERRASSA", "PROV": "BARCELONA", "CERC": 1, "NIVEL": 1, "ATENDO": 0}, "geometry": { "type": "Point", "coordinates": [ 2.014354, 41.569783 ] } },
{ "type": "Feature", "properties": { "CODIGO": 78604, "NOMBRE": "Sant Vicenç De Castellet", "LAT": 41.6688309, "LON": 1.86264304, "ACCESIBLE": 2, "DIR": "Pg. Pau Casals, S/N", "LOCALIDAD": "SANT VICENÇ DE CASTELLET", "PROV": "BARCELONA", "CERC": 1, "NIVEL": 3, "ATENDO": 0}, "geometry": { "type": "Point", "coordinates": [ 1.862643, 41.668831 ] } },
{ "type": "Feature", "properties": { "CODIGO": 78600, "NOMBRE": "Manresa", "LAT": 41.7203921, "LON": 1.82648564, "ACCESIBLE": 2, "DIR": "Ctra. Manresa A Abrera, S/N", "LOCALIDAD": "MANRESA", "PROV": "BARCELONA", "CERC": 1, "NIVEL": 3, "ATENDO": 0}, "geometry": { "type": "Point", "coordinates": [ 1.826486, 41.720392 ] } },
{ "type": "Feature", "properties": { "CODIGO": 78505, "NOMBRE": "Aguilar De Segarra", "LAT": 41.738917, "LON": 1.62372, "ACCESIBLE": 2, "DIR": "Ctra. Bv - 3009 - Estación Ferrocarril, 18", "LOCALIDAD": "AGUILAR DE SEGARRA", "PROV": "BARCELONA", "CERC": 1, "NIVEL": 3, "ATENDO": 0}, "geometry": { "type": "Point", "coordinates": [ 1.62372, 41.738917 ] } },
{ "type": "Feature", "properties": { "CODIGO": 78503, "NOMBRE": "Calaf", "LAT": 41.730334, "LON": 1.515097, "ACCESIBLE": 2, "DIR": "Avda. Josep Miro, 1", "LOCALIDAD": "CALAF", "PROV": "BARCELONA", "CERC": 1, "NIVEL": 3, "ATENDO": 0}, "geometry": { "type": "Point", "coordinates": [ 1.515097, 41.730334 ] } },
{ "type": "Feature", "properties": { "CODIGO": 78501, "NOMBRE": "Sant Guim De Freixenet", "LAT": 41.655924, "LON": 1.42053, "ACCESIBLE": 2, "DIR": "Pl. de L'Estació, S/N", "LOCALIDAD": "SANT GUIM DE FREIXENET", "PROV": "LLEIDA", "CERC": 1, "NIVEL": 3, "ATENDO": 0}, "geometry": { "type": "Point", "coordinates": [ 1.42053, 41.655924 ] } },
{ "type": "Feature", "properties": { "CODIGO": 74217, "NOMBRE": "Canfranc", "LAT": 42.751471, "LON": -0.514641, "ACCESIBLE": 2, "DIR": "Av. de Fernando El Catolico, 2", "LOCALIDAD": "CANFRANC", "PROV": "HUESCA", "CERC": 0, "NIVEL": 1, "ATENDO": 0}, "geometry": { "type": "Point", "coordinates": [ -0.514641, 42.751471 ] } },
{ "type": "Feature", "properties": { "CODIGO": 74213, "NOMBRE": "Jaca", "LAT": 42.578303, "LON": -0.539231, "ACCESIBLE": 2, "DIR": "C/ Estación Ferrocarril, S/N", "LOCALIDAD": "JACA", "PROV": "HUESCA", "CERC": 0, "NIVEL": 3, "ATENDO": 0}, "geometry": { "type": "Point", "coordinates": [ -0.539231, 42.578303 ] } },
{ "type": "Feature", "properties": { "CODIGO": 74211, "NOMBRE": "Sabiñánigo", "LAT": 42.520446, "LON": -0.373085, "ACCESIBLE": 2, "DIR": "C/ Serrablo, 2", "LOCALIDAD": "SABIÑÁNIGO", "PROV": "HUESCA", "CERC": 0, "NIVEL": 3, "ATENDO": 0}, "geometry": { "type": "Point", "coordinates": [ -0.373085, 42.520446 ] } },
{ "type": "Feature", "properties": { "CODIGO": 74208, "NOMBRE": "Anzánigo", "LAT": 42.403289, "LON": -0.643344, "ACCESIBLE": 2, "DIR": "C/ Estación Ferrocarril, S/N", "LOCALIDAD": "JACA", "PROV": "HUESCA", "CERC": 0, "NIVEL": 3, "ATENDO": 0}, "geometry": { "type": "Point", "coordinates": [ -0.643344, 42.403289 ] } },
{ "type": "Feature", "properties": { "CODIGO": 74207, "NOMBRE": "Santa María Y La Peña", "LAT": 42.38039, "LON": -0.695647, "ACCESIBLE": 2, "DIR": "C/ Estación Ferrocarril, S/N", "LOCALIDAD": "PEÑAS DE RIGLOS (LAS)", "PROV": "HUESCA", "CERC": 0, "NIVEL": 3, "ATENDO": 0}, "geometry": { "type": "Point", "coordinates": [ -0.695647, 42.38039 ] } },
{ "type": "Feature", "properties": { "CODIGO": 78005, "NOMBRE": "Villanueva De Gállego", "LAT": 41.76551, "LON": -0.822204, "ACCESIBLE": 2, "DIR": "C/ Estación Ferrocarril, S/N", "LOCALIDAD": "VILLANUEVA DE GÁLLEGO", "PROV": "ZARAGOZA", "CERC": 0, "NIVEL": 3, "ATENDO": 0}, "geometry": { "type": "Point", "coordinates": [ -0.822204, 41.76551 ] } },
{ "type": "Feature", "properties": { "CODIGO": 79004, "NOMBRE": "Barcelona-Sant Andreu", "LAT": 41.4361251, "LON": 2.19319866, "ACCESIBLE": 2, "DIR": "Pl. Estació, S/N", "LOCALIDAD": "BARCELONA", "PROV": "BARCELONA", "CERC": 1, "NIVEL": 2, "ATENDO": 0}, "geometry": { "type": "Point", "coordinates": [ 2.193199, 41.436125 ] } },
{ "type": "Feature", "properties": { "CODIGO": 79105, "NOMBRE": "Gualba", "LAT": 41.7181901, "LON": 2.53878373, "ACCESIBLE": 2, "DIR": "Barri D L'Estacio, S/N", "LOCALIDAD": "GUALBA", "PROV": "BARCELONA", "CERC": 1, "NIVEL": 2, "ATENDO": 0}, "geometry": { "type": "Point", "coordinates": [ 2.538784, 41.71819 ] } },
{ "type": "Feature", "properties": { "CODIGO": 79107, "NOMBRE": "Hostalric", "LAT": 41.747788, "LON": 2.63165011, "ACCESIBLE": 2, "DIR": "Baixada de L'Estació, S/N", "LOCALIDAD": "HOSTALRIC", "PROV": "GIRONA", "CERC": 1, "NIVEL": 2, "ATENDO": 0}, "geometry": { "type": "Point", "coordinates": [ 2.63165, 41.747788 ] } },
{ "type": "Feature", "properties": { "CODIGO": 79204, "NOMBRE": "Riudellots", "LAT": 41.896297, "LON": 2.81157037, "ACCESIBLE": 2, "DIR": "C/ Veinat de L'Estació, S/N", "LOCALIDAD": "RIUDELLOTS DE LA SELVA", "PROV": "GIRONA", "CERC": 1, "NIVEL": 2, "ATENDO": 0}, "geometry": { "type": "Point", "coordinates": [ 2.81157, 41.896297 ] } },
{ "type": "Feature", "properties": { "CODIGO": 79302, "NOMBRE": "Bordils-Juià", "LAT": 42.0370568, "LON": 2.91529561, "ACCESIBLE": 2, "DIR": "Ctra. Vella, S/N", "LOCALIDAD": "BORDILS", "PROV": "GIRONA", "CERC": 1, "NIVEL": 2, "ATENDO": 0}, "geometry": { "type": "Point", "coordinates": [ 2.915296, 42.037057 ] } },
{ "type": "Feature", "properties": { "CODIGO": 79304, "NOMBRE": "Sant Jordi Desvalls", "LAT": 42.0683023, "LON": 2.96447664, "ACCESIBLE": 2, "DIR": "C/ de L'Estació, S/N", "LOCALIDAD": "SANT JORDI DESVALLS", "PROV": "GIRONA", "CERC": 1, "NIVEL": 2, "ATENDO": 0}, "geometry": { "type": "Point", "coordinates": [ 2.964477, 42.068302 ] } },
{ "type": "Feature", "properties": { "CODIGO": 79305, "NOMBRE": "Camallera", "LAT": 42.1223297, "LON": 2.96536522, "ACCESIBLE": 2, "DIR": "C/ Estació Ferrocarril, S/N", "LOCALIDAD": "SAUS, CAMALLERA I LLAMPAIES", "PROV": "GIRONA", "CERC": 1, "NIVEL": 2, "ATENDO": 0}, "geometry": { "type": "Point", "coordinates": [ 2.965365, 42.12233 ] } },
{ "type": "Feature", "properties": { "CODIGO": 79306, "NOMBRE": "Sant Miquel De Fluvià", "LAT": 42.1721019, "LON": 2.98959828, "ACCESIBLE": 2, "DIR": "Ctra. Gi-622 - Estació Ferrocarril, S/N", "LOCALIDAD": "SANT MIQUEL DE FLUVIÀ", "PROV": "GIRONA", "CERC": 1, "NIVEL": 2, "ATENDO": 0}, "geometry": { "type": "Point", "coordinates": [ 2.989598, 42.172102 ] } },
{ "type": "Feature", "properties": { "CODIGO": 79311, "NOMBRE": "Vilajuïga", "LAT": 42.3256691, "LON": 3.08754626, "ACCESIBLE": 2, "DIR": "Passeig de L'Estació, S/N", "LOCALIDAD": "VILAJUÏGA", "PROV": "GIRONA", "CERC": 1, "NIVEL": 2, "ATENDO": 0}, "geometry": { "type": "Point", "coordinates": [ 3.087546, 42.325669 ] } },
{ "type": "Feature", "properties": { "CODIGO": 79314, "NOMBRE": "Colera", "LAT": 42.4068837, "LON": 3.15434316, "ACCESIBLE": 2, "DIR": "C/ Pujada Estació, S/N", "LOCALIDAD": "COLERA", "PROV": "GIRONA", "CERC": 1, "NIVEL": 2, "ATENDO": 0}, "geometry": { "type": "Point", "coordinates": [ 3.154343, 42.406884 ] } },
{ "type": "Feature", "properties": { "CODIGO": 11203, "NOMBRE": "Manzanos", "LAT": 42.742899, "LON": -2.867501, "ACCESIBLE": 2, "DIR": "C/ Rio Zadorra Kalea, S/N", "LOCALIDAD": "RIBERA BAJA/ERRIBERA BEITIA", "PROV": "ARABA/ÁLAVA", "CERC": 1, "NIVEL": 3, "ATENDO": 0}, "geometry": { "type": "Point", "coordinates": [ -2.867501, 42.742899 ] } },
{ "type": "Feature", "properties": { "CODIGO": 11204, "NOMBRE": "La Puebla De Arganzón", "LAT": 42.765245, "LON": -2.830385, "ACCESIBLE": 2, "DIR": "C/ Estación Ferrocarril, S/N", "LOCALIDAD": "PUEBLA DE ARGANZÓN (LA)", "PROV": "BURGOS", "CERC": 1, "NIVEL": 3, "ATENDO": 0}, "geometry": { "type": "Point", "coordinates": [ -2.830385, 42.765245 ] } },
{ "type": "Feature", "properties": { "CODIGO": 11205, "NOMBRE": "Nanclares/Langraiz", "LAT": 42.816216, "LON": -2.804942, "ACCESIBLE": 2, "DIR": "La Estación Kalez, S/N", "LOCALIDAD": "IRUÑA OKA/IRUÑA DE OCA", "PROV": "ARABA/ÁLAVA", "CERC": 1, "NIVEL": 3, "ATENDO": 0}, "geometry": { "type": "Point", "coordinates": [ -2.804942, 42.816216 ] } },
{ "type": "Feature", "properties": { "CODIGO": 11212, "NOMBRE": "Salvatierra/Agurain", "LAT": 42.84643, "LON": -2.38921, "ACCESIBLE": 2, "DIR": "C/ Trebiño Kalea, S/N", "LOCALIDAD": "SALVATIERRA/AGURAIN", "PROV": "ARABA/ÁLAVA", "CERC": 1, "NIVEL": 2, "ATENDO": 0}, "geometry": { "type": "Point", "coordinates": [ -2.38921, 42.84643 ] } },
{ "type": "Feature", "properties": { "CODIGO": 11213, "NOMBRE": "Araia", "LAT": 42.869599, "LON": -2.306807, "ACCESIBLE": 2, "DIR": "C/ Estación Ferrocarril, S/N", "LOCALIDAD": "ZALDUONDO", "PROV": "ARABA/ÁLAVA", "CERC": 1, "NIVEL": 2, "ATENDO": 0}, "geometry": { "type": "Point", "coordinates": [ -2.306807, 42.869599 ] } },
{ "type": "Feature", "properties": { "CODIGO": 11305, "NOMBRE": "Brinkola-Oñati", "LAT": 43.0189865, "LON": -2.3346811, "ACCESIBLE": 2, "DIR": "Brinkola Nucleo -  Legazpia, S/N", "LOCALIDAD": "LEGAZPI", "PROV": "GIPUZKOA", "CERC": 1, "NIVEL": 3, "ATENDO": 0}, "geometry": { "type": "Point", "coordinates": [ -2.334681, 43.018986 ] } },
{ "type": "Feature", "properties": { "CODIGO": 11306, "NOMBRE": "Legazpi", "LAT": 43.0510385, "LON": -2.3306103, "ACCESIBLE": 2, "DIR": "C/ Estación, S/N", "LOCALIDAD": "LEGAZPI", "PROV": "GIPUZKOA", "CERC": 1, "NIVEL": 3, "ATENDO": 0}, "geometry": { "type": "Point", "coordinates": [ -2.33061, 43.051038 ] } },
{ "type": "Feature", "properties": { "CODIGO": 11402, "NOMBRE": "Ormaiztegi", "LAT": 43.0402752, "LON": -2.256462, "ACCESIBLE": 2, "DIR": "Sakabanatua, 23", "LOCALIDAD": "ORMAIZTEGI", "PROV": "GIPUZKOA", "CERC": 1, "NIVEL": 3, "ATENDO": 0}, "geometry": { "type": "Point", "coordinates": [ -2.256462, 43.040275 ] } },
{ "type": "Feature", "properties": { "CODIGO": 11404, "NOMBRE": "Beasain", "LAT": 43.0462687, "LON": -2.2022994, "ACCESIBLE": 2, "DIR": "Pla. Barrendain, S/N", "LOCALIDAD": "BEASAIN", "PROV": "GIPUZKOA", "CERC": 1, "NIVEL": 3, "ATENDO": 0}, "geometry": { "type": "Point", "coordinates": [ -2.202299, 43.046269 ] } },
{ "type": "Feature", "properties": { "CODIGO": 11501, "NOMBRE": "Tolosa Centro", "LAT": 43.1393963, "LON": -2.0741122, "ACCESIBLE": 2, "DIR": "Pablo Gorosabel", "LOCALIDAD": "TOLOSA", "PROV": "GIPUZKOA", "CERC": 1, "NIVEL": 3, "ATENDO": 0}, "geometry": { "type": "Point", "coordinates": [ -2.074112, 43.139396 ] } },
{ "type": "Feature", "properties": { "CODIGO": 60902, "NOMBRE": "Villena", "LAT": 38.631738, "LON": -0.867689, "ACCESIBLE": 1, "DIR": "Ronda de la Estación, S/N", "LOCALIDAD": "VILLENA", "PROV": "ALICANTE/ALACANT", "CERC": 0, "NIVEL": 1, "ATENDO": 1}, "geometry": { "type": "Point", "coordinates": [ -0.867689, 38.631738 ] } },
{ "type": "Feature", "properties": { "CODIGO": 65318, "NOMBRE": "Benicàssim", "LAT": 40.0579451, "LON": 0.0577646, "ACCESIBLE": 2, "DIR": "Pza. de la Estación S/N, Benicàssim (Castelló)", "LOCALIDAD": "BENICASIM/BENICÀSSIM", "PROV": "CASTELLÓN/CASTELLÓ", "CERC": 1, "NIVEL": 2, "ATENDO": 1}, "geometry": { "type": "Point", "coordinates": [ 0.057765, 40.057945 ] } },
{ "type": "Feature", "properties": { "CODIGO": 62103, "NOMBRE": "Elche Parque/Elx Parc", "LAT": 38.2717809, "LON": -0.6952193, "ACCESIBLE": 2, "DIR": "Avda. del Ferrocarril Este, 10", "LOCALIDAD": "ELCHE/ELX", "PROV": "ALICANTE/ALACANT", "CERC": 1, "NIVEL": 3, "ATENDO": 0}, "geometry": { "type": "Point", "coordinates": [ -0.695219, 38.271781 ] } },
{ "type": "Feature", "properties": { "CODIGO": 62002, "NOMBRE": "Orihuela-Miguel Hernández", "LAT": 38.0779321, "LON": -0.944606, "ACCESIBLE": 2, "DIR": "Avda Teodomiro, 68", "LOCALIDAD": "ORIHUELA", "PROV": "ALICANTE/ALACANT", "CERC": 1, "NIVEL": 2, "ATENDO": 0}, "geometry": { "type": "Point", "coordinates": [ -0.944606, 38.077932 ] } },
{ "type": "Feature", "properties": { "CODIGO": 61304, "NOMBRE": "Torre-Pacheco", "LAT": 37.746905, "LON": -0.967078, "ACCESIBLE": 2, "DIR": "Avda. Estación Ferrocarril, S/N", "LOCALIDAD": "TORRE-PACHECO", "PROV": "MURCIA", "CERC": 1, "NIVEL": 2, "ATENDO": 0}, "geometry": { "type": "Point", "coordinates": [ -0.967078, 37.746905 ] } },
{ "type": "Feature", "properties": { "CODIGO": 61303, "NOMBRE": "Balsicas-Mar Menor", "LAT": 37.81884, "LON": -0.950891, "ACCESIBLE": 2, "DIR": "C/ Mar Menor, S/N", "LOCALIDAD": "TORRE-PACHECO", "PROV": "MURCIA", "CERC": 1, "NIVEL": 2, "ATENDO": 1}, "geometry": { "type": "Point", "coordinates": [ -0.950891, 37.81884 ] } },
{ "type": "Feature", "properties": { "CODIGO": 61200, "NOMBRE": "Murcia", "LAT": 37.9748243, "LON": -1.131508, "ACCESIBLE": 1, "DIR": "Pza. de la Industria, S/N", "LOCALIDAD": "MURCIA", "PROV": "MURCIA", "CERC": 1, "NIVEL": 1, "ATENDO": 1}, "geometry": { "type": "Point", "coordinates": [ -1.131508, 37.974824 ] } },
{ "type": "Feature", "properties": { "CODIGO": 6006, "NOMBRE": "Lorca Sutullena", "LAT": 37.6721129, "LON": -1.6962305, "ACCESIBLE": 2, "DIR": "C/ Alameda de Menchiron, S/N", "LOCALIDAD": "LORCA", "PROV": "MURCIA", "CERC": 1, "NIVEL": 1, "ATENDO": 0}, "geometry": { "type": "Point", "coordinates": [ -1.69623, 37.672113 ] } },
{ "type": "Feature", "properties": { "CODIGO": 6003, "NOMBRE": "Totana", "LAT": 37.7635424, "LON": -1.4956153, "ACCESIBLE": 2, "DIR": "Camino de la Estación S/N", "LOCALIDAD": "TOTANA", "PROV": "MURCIA", "CERC": 1, "NIVEL": 3, "ATENDO": 0}, "geometry": { "type": "Point", "coordinates": [ -1.495615, 37.763542 ] } },
{ "type": "Feature", "properties": { "CODIGO": 54413, "NOMBRE": "Malaga Maria Zambrano", "LAT": 36.7113388, "LON": -4.4313888, "ACCESIBLE": 1, "DIR": "C/ Explanada de la Estación, S/N", "LOCALIDAD": "MÁLAGA", "PROV": "MÁLAGA", "CERC": 1, "NIVEL": 1, "ATENDO": 1}, "geometry": { "type": "Point", "coordinates": [ -4.431389, 36.711339 ] } },
{ "type": "Feature", "properties": { "CODIGO": 5000, "NOMBRE": "Granada", "LAT": 37.184038, "LON": -3.609154, "ACCESIBLE": 1, "DIR": "Avda. de los Andaluces, S/N", "LOCALIDAD": "GRANADA", "PROV": "GRANADA", "CERC": 0, "NIVEL": 1, "ATENDO": 1}, "geometry": { "type": "Point", "coordinates": [ -3.609154, 37.184038 ] } },
{ "type": "Feature", "properties": { "CODIGO": 2030, "NOMBRE": "Antequera AV", "LAT": 37.0334437, "LON": -4.5612901, "ACCESIBLE": 1, "DIR": "Ctra A-7281 Antigua Carretera de Córdoba S/N", "LOCALIDAD": "ANTEQUERA", "PROV": "MÁLAGA", "CERC": 0, "NIVEL": 1, "ATENDO": 0}, "geometry": { "type": "Point", "coordinates": [ -4.56129, 37.033444 ] } },
{ "type": "Feature", "properties": { "CODIGO": 43019, "NOMBRE": "Huelva", "LAT": 37.253079, "LON": -6.950971, "ACCESIBLE": 1, "DIR": "Avda. de Cádiz, S/N", "LOCALIDAD": "HUELVA", "PROV": "HUELVA", "CERC": 0, "NIVEL": 1, "ATENDO": 1}, "geometry": { "type": "Point", "coordinates": [ -6.950971, 37.253079 ] } },
{ "type": "Feature", "properties": { "CODIGO": 43011, "NOMBRE": "La Palma del Condado", "LAT": 37.390665, "LON": -6.554444, "ACCESIBLE": 1, "DIR": "Avda. de la Constitucion, 9", "LOCALIDAD": "PALMA DEL CONDADO (LA)", "PROV": "HUELVA", "CERC": 0, "NIVEL": 3, "ATENDO": 1}, "geometry": { "type": "Point", "coordinates": [ -6.554444, 37.390665 ] } },
{ "type": "Feature", "properties": { "CODIGO": 74200, "NOMBRE": "Huesca", "LAT": 42.133594, "LON": -0.409745, "ACCESIBLE": 1, "DIR": "C/ José Gil Cavez, 10", "LOCALIDAD": "HUESCA", "PROV": "HUESCA", "CERC": 0, "NIVEL": 1, "ATENDO": 1}, "geometry": { "type": "Point", "coordinates": [ -0.409745, 42.133594 ] } },
{ "type": "Feature", "properties": { "CODIGO": 78200, "NOMBRE": "Tardienta", "LAT": 41.975716, "LON": -0.538223, "ACCESIBLE": 2, "DIR": "Pl. Estación Ferrocarril, S/N", "LOCALIDAD": "TARDIENTA", "PROV": "HUESCA", "CERC": 0, "NIVEL": 3, "ATENDO": 0}, "geometry": { "type": "Point", "coordinates": [ -0.538223, 41.975716 ] } },
{ "type": "Feature", "properties": { "CODIGO": 11500, "NOMBRE": "Tolosa", "LAT": 43.1354472, "LON": -2.0790886, "ACCESIBLE": 2, "DIR": "Geltoki Kalea - Bajo", "LOCALIDAD": "TOLOSA", "PROV": "GIPUZKOA", "CERC": 1, "NIVEL": 2, "ATENDO": 0}, "geometry": { "type": "Point", "coordinates": [ -2.079089, 43.135447 ] } },
{ "type": "Feature", "properties": { "CODIGO": 15410, "NOMBRE": "Gijón/Xixón", "LAT": 43.5377329, "LON": -5.6758089, "ACCESIBLE": 1, "DIR": "C/  Sanz Crespo, S/N", "LOCALIDAD": "GIJÓN", "PROV": "ASTURIAS", "CERC": 1, "NIVEL": 1, "ATENDO": 1}, "geometry": { "type": "Point", "coordinates": [ -5.675809, 43.537733 ] } },
{ "type": "Feature", "properties": { "CODIGO": 15211, "NOMBRE": "Oviedo/Uviéu", "LAT": 43.3663577, "LON": -5.854838, "ACCESIBLE": 1, "DIR": "Calle Uría S/N", "LOCALIDAD": "OVIEDO", "PROV": "ASTURIAS", "CERC": 1, "NIVEL": 2, "ATENDO": 1}, "geometry": { "type": "Point", "coordinates": [ -5.854838, 43.366358 ] } },
{ "type": "Feature", "properties": { "CODIGO": 8004, "NOMBRE": "Segovia Guiomar", "LAT": 40.910577, "LON": -4.094564, "ACCESIBLE": 1, "DIR": "Paseo Campos de Castilla, S/N", "LOCALIDAD": "SEGOVIA", "PROV": "SEGOVIA", "CERC": 0, "NIVEL": 1, "ATENDO": 1}, "geometry": { "type": "Point", "coordinates": [ -4.094564, 40.910577 ] } },
{ "type": "Feature", "properties": { "CODIGO": 14114, "NOMBRE": "Aguilar de Campoo", "LAT": 42.785362, "LON": -4.233899, "ACCESIBLE": 2, "DIR": "Barrio Estación Ferrocarril, 18 - 19", "LOCALIDAD": "AGUILAR DE CAMPOO", "PROV": "PALENCIA", "CERC": 0, "NIVEL": 3, "ATENDO": 0}, "geometry": { "type": "Point", "coordinates": [ -4.233899, 42.785362 ] } },
{ "type": "Feature", "properties": { "CODIGO": 14202, "NOMBRE": "Reinosa", "LAT": 42.9944991, "LON": -4.1409454, "ACCESIBLE": 2, "DIR": "Estación Adif Pza. de las Estaciónes S/N", "LOCALIDAD": "REINOSA", "PROV": "CANTABRIA", "CERC": 1, "NIVEL": 3, "ATENDO": 0}, "geometry": { "type": "Point", "coordinates": [ -4.140945, 42.994499 ] } },
{ "type": "Feature", "properties": { "CODIGO": 15203, "NOMBRE": "Mieres Puente", "LAT": 43.2500266, "LON": -5.7822622, "ACCESIBLE": 1, "DIR": "Barrio del Gonzalin S/N (Mi- 1)", "LOCALIDAD": "MIERES", "PROV": "ASTURIAS", "CERC": 1, "NIVEL": 3, "ATENDO": 1}, "geometry": { "type": "Point", "coordinates": [ -5.782262, 43.250027 ] } },
{ "type": "Feature", "properties": { "CODIGO": 20005, "NOMBRE": "Veguellina", "LAT": 42.4335, "LON": -5.88756, "ACCESIBLE": 2, "DIR": "Paseo Estación Ferrocarril, 34", "LOCALIDAD": "VILLAREJO DE ÓRBIGO", "PROV": "LEÓN", "CERC": 0, "NIVEL": 3, "ATENDO": 1}, "geometry": { "type": "Point", "coordinates": [ -5.88756, 42.4335 ] } },
{ "type": "Feature", "properties": { "CODIGO": 16403, "NOMBRE": "Avilés", "LAT": 43.561339, "LON": -5.9228329, "ACCESIBLE": 2, "DIR": "Avda. de los Telares, 18", "LOCALIDAD": "AVILÉS", "PROV": "ASTURIAS", "CERC": 1, "NIVEL": 1, "ATENDO": 0}, "geometry": { "type": "Point", "coordinates": [ -5.922833, 43.561339 ] } },
{ "type": "Feature", "properties": { "CODIGO": 30200, "NOMBRE": "Zamora", "LAT": 41.515892, "LON": -5.739675, "ACCESIBLE": 1, "DIR": "Ctra. de la Estación, S/N", "LOCALIDAD": "ZAMORA", "PROV": "ZAMORA", "CERC": 0, "NIVEL": 2, "ATENDO": 1}, "geometry": { "type": "Point", "coordinates": [ -5.739675, 41.515892 ] } },
{ "type": "Feature", "properties": { "CODIGO": 8247, "NOMBRE": "Sanabria Alta Velocidad", "LAT": 42.0450532, "LON": -6.5631319, "ACCESIBLE": 2, "DIR": "Carretera N-525 P.k. 78+100,  Polígono 34 Parcela 9006", "LOCALIDAD": "PUEBLA DE SANABRIA", "PROV": "ZAMORA", "CERC": 0, "NIVEL": 3, "ATENDO": 0}, "geometry": { "type": "Point", "coordinates": [ -6.563132, 42.045053 ] } },
{ "type": "Feature", "properties": { "CODIGO": 20109, "NOMBRE": "Torre del Bierzo", "LAT": 42.595578, "LON": -6.329083, "ACCESIBLE": 2, "DIR": "Paseo Estación Ferrocarril, S/N", "LOCALIDAD": "TORRE DEL BIERZO", "PROV": "LEÓN", "CERC": 0, "NIVEL": 3, "ATENDO": 0}, "geometry": { "type": "Point", "coordinates": [ -6.329083, 42.595578 ] } },
{ "type": "Feature", "properties": { "CODIGO": 20102, "NOMBRE": "Vega-Magaz", "LAT": 42.55376, "LON": -6.068267, "ACCESIBLE": 2, "DIR": "C/ Camino Estación Ferrocarril, S/N", "LOCALIDAD": "MAGAZ DE CEPEDA", "PROV": "LEÓN", "CERC": 0, "NIVEL": 3, "ATENDO": 0}, "geometry": { "type": "Point", "coordinates": [ -6.068267, 42.55376 ] } },
{ "type": "Feature", "properties": { "CODIGO": 8223, "NOMBRE": "Vigo Urzaiz", "LAT": 42.234189, "LON": -8.713728, "ACCESIBLE": 1, "DIR": "Rúa Vía Norte S/N", "LOCALIDAD": "VIGO", "PROV": "PONTEVEDRA", "CERC": 0, "NIVEL": 1, "ATENDO": 1}, "geometry": { "type": "Point", "coordinates": [ -8.713728, 42.234189 ] } },
{ "type": "Feature", "properties": { "CODIGO": 92102, "NOMBRE": "Toledo", "LAT": 39.862272, "LON": -4.011244, "ACCESIBLE": 1, "DIR": "C/ Paseo de la Rosa, S/N", "LOCALIDAD": "TOLEDO", "PROV": "TOLEDO", "CERC": 0, "NIVEL": 1, "ATENDO": 1}, "geometry": { "type": "Point", "coordinates": [ -4.011244, 39.862272 ] } },
{ "type": "Feature", "properties": { "CODIGO": 31416, "NOMBRE": "Cerceda-Meirama", "LAT": 43.2078791, "LON": -8.4467723, "ACCESIBLE": 2, "DIR": "Ctra. C - 2104 - A --- Estación Ferrocarril, S/N", "LOCALIDAD": "CERCEDA", "PROV": "CORUÑA, A", "CERC": 0, "NIVEL": 2, "ATENDO": 0}, "geometry": { "type": "Point", "coordinates": [ -8.446772, 43.207879 ] } },
{ "type": "Feature", "properties": { "CODIGO": 23002, "NOMBRE": "Arcade", "LAT": 42.340549, "LON": -8.611178, "ACCESIBLE": 2, "DIR": "Rúa Rosalia de Castro, S/N", "LOCALIDAD": "SOUTOMAIOR", "PROV": "PONTEVEDRA", "CERC": 0, "NIVEL": 2, "ATENDO": 0}, "geometry": { "type": "Point", "coordinates": [ -8.611178, 42.340549 ] } },
{ "type": "Feature", "properties": { "CODIGO": 55020, "NOMBRE": "Algeciras", "LAT": 36.126831, "LON": -5.451108, "ACCESIBLE": 1, "DIR": "Avda. Gesto Por la Paz, S/N", "LOCALIDAD": "ALGECIRAS", "PROV": "CÁDIZ", "CERC": 0, "NIVEL": 1, "ATENDO": 1}, "geometry": { "type": "Point", "coordinates": [ -5.451108, 36.126831 ] } },
{ "type": "Feature", "properties": { "CODIGO": 55007, "NOMBRE": "Ronda", "LAT": 36.748401, "LON": -5.16197, "ACCESIBLE": 1, "DIR": "Avda. de Andalucia, 31", "LOCALIDAD": "RONDA", "PROV": "MÁLAGA", "CERC": 0, "NIVEL": 1, "ATENDO": 1}, "geometry": { "type": "Point", "coordinates": [ -5.16197, 36.748401 ] } },
{ "type": "Feature", "properties": { "CODIGO": 55018, "NOMBRE": "San Roque-La Linea", "LAT": 36.214482, "LON": -5.432399, "ACCESIBLE": 2, "DIR": "Avda. Guadarranque, 34", "LOCALIDAD": "SAN ROQUE", "PROV": "CÁDIZ", "CERC": 0, "NIVEL": 3, "ATENDO": 0}, "geometry": { "type": "Point", "coordinates": [ -5.432399, 36.214482 ] } },
{ "type": "Feature", "properties": { "CODIGO": 61015, "NOMBRE": "Archena-Fortuna", "LAT": 38.13132, "LON": -1.236037, "ACCESIBLE": 2, "DIR": "C/ Estación Ferrocarril, S/N", "LOCALIDAD": "MOLINA DE SEGURA", "PROV": "MURCIA", "CERC": 0, "NIVEL": 3, "ATENDO": 0}, "geometry": { "type": "Point", "coordinates": [ -1.236037, 38.13132 ] } },
{ "type": "Feature", "properties": { "CODIGO": 61012, "NOMBRE": "Cieza", "LAT": 38.246609, "LON": -1.421702, "ACCESIBLE": 2, "DIR": "C/ Estación Ferrocarril, 34", "LOCALIDAD": "CIEZA", "PROV": "MURCIA", "CERC": 0, "NIVEL": 3, "ATENDO": 0}, "geometry": { "type": "Point", "coordinates": [ -1.421702, 38.246609 ] } },
{ "type": "Feature", "properties": { "CODIGO": 61005, "NOMBRE": "Hellin", "LAT": 38.508776, "LON": -1.688437, "ACCESIBLE": 2, "DIR": "Paseo Yutera del Carmen, S/N", "LOCALIDAD": "HELLÍN", "PROV": "ALBACETE", "CERC": 0, "NIVEL": 3, "ATENDO": 0}, "geometry": { "type": "Point", "coordinates": [ -1.688437, 38.508776 ] } },
{ "type": "Feature", "properties": { "CODIGO": 10603, "NOMBRE": "Corcos-Aguilarejo", "LAT": 41.766446, "LON": -4.623485, "ACCESIBLE": 2, "DIR": "Camino Estación Ferrocarril, S/N", "LOCALIDAD": "CORCOS", "PROV": "VALLADOLID", "CERC": 0, "NIVEL": 3, "ATENDO": 0}, "geometry": { "type": "Point", "coordinates": [ -4.623485, 41.766446 ] } },
{ "type": "Feature", "properties": { "CODIGO": 10604, "NOMBRE": "Cubillas de Santa Marta", "LAT": 41.808861, "LON": -4.579754, "ACCESIBLE": 2, "DIR": "C/ Camino del Apeadero, S/N", "LOCALIDAD": "CUBILLAS DE SANTA MARTA", "PROV": "VALLADOLID", "CERC": 0, "NIVEL": 3, "ATENDO": 0}, "geometry": { "type": "Point", "coordinates": [ -4.579754, 41.808861 ] } },
{ "type": "Feature", "properties": { "CODIGO": 10605, "NOMBRE": "Dueñas", "LAT": 41.87048, "LON": -4.541216, "ACCESIBLE": 2, "DIR": "C/ Estación Ferrocarril, 7", "LOCALIDAD": "DUEÑAS", "PROV": "PALENCIA", "CERC": 0, "NIVEL": 2, "ATENDO": 0}, "geometry": { "type": "Point", "coordinates": [ -4.541216, 41.87048 ] } },
{ "type": "Feature", "properties": { "CODIGO": 11000, "NOMBRE": "Venta De Baños", "LAT": 41.91736, "LON": -4.495844, "ACCESIBLE": 2, "DIR": "C/ Linea Ferrocarril, 3 - 7", "LOCALIDAD": "VENTA DE BAÑOS", "PROV": "PALENCIA", "CERC": 0, "NIVEL": 1, "ATENDO": 0}, "geometry": { "type": "Point", "coordinates": [ -4.495844, 41.91736 ] } },
{ "type": "Feature", "properties": { "CODIGO": 15001, "NOMBRE": "Grijota", "LAT": 42.049225, "LON": -4.583954, "ACCESIBLE": 2, "DIR": "Paseo Estación Ferrocarril, S/N", "LOCALIDAD": "GRIJOTA", "PROV": "PALENCIA", "CERC": 0, "NIVEL": 3, "ATENDO": 0}, "geometry": { "type": "Point", "coordinates": [ -4.583954, 42.049225 ] } },
{ "type": "Feature", "properties": { "CODIGO": 15003, "NOMBRE": "Becerril", "LAT": 42.104706, "LON": -4.64712, "ACCESIBLE": 2, "DIR": "Ctra. P - 953 --- Estación Ferrocarril, S/N", "LOCALIDAD": "BECERRIL DE CAMPOS", "PROV": "PALENCIA", "CERC": 0, "NIVEL": 3, "ATENDO": 0}, "geometry": { "type": "Point", "coordinates": [ -4.64712, 42.104706 ] } },
{ "type": "Feature", "properties": { "CODIGO": 15004, "NOMBRE": "Paredes de Nava", "LAT": 42.150694, "LON": -4.697599, "ACCESIBLE": 2, "DIR": "Avda. Berruguete, 38", "LOCALIDAD": "PAREDES DE NAVA", "PROV": "PALENCIA", "CERC": 0, "NIVEL": 3, "ATENDO": 0}, "geometry": { "type": "Point", "coordinates": [ -4.697599, 42.150694 ] } },
{ "type": "Feature", "properties": { "CODIGO": 15007, "NOMBRE": "Villada", "LAT": 42.245238, "LON": -4.970589, "ACCESIBLE": 2, "DIR": "C/ Estación Norte, S/N", "LOCALIDAD": "VILLADA", "PROV": "PALENCIA", "CERC": 0, "NIVEL": 3, "ATENDO": 0}, "geometry": { "type": "Point", "coordinates": [ -4.970589, 42.245238 ] } },
{ "type": "Feature", "properties": { "CODIGO": 15008, "NOMBRE": "Grajal", "LAT": 42.323246, "LON": -5.013381, "ACCESIBLE": 2, "DIR": "C/ Estación Ferrocarril, S/N", "LOCALIDAD": "GRAJAL DE CAMPOS", "PROV": "LEÓN", "CERC": 0, "NIVEL": 3, "ATENDO": 0}, "geometry": { "type": "Point", "coordinates": [ -5.013381, 42.323246 ] } },
{ "type": "Feature", "properties": { "CODIGO": 15012, "NOMBRE": "El Burgo Ranero", "LAT": 42.425753, "LON": -5.208592, "ACCESIBLE": 2, "DIR": "C/ Senda Estación Ferrocarril, S/N", "LOCALIDAD": "BURGO RANERO (EL)", "PROV": "LEÓN", "CERC": 0, "NIVEL": 3, "ATENDO": 0}, "geometry": { "type": "Point", "coordinates": [ -5.208592, 42.425753 ] } },
{ "type": "Feature", "properties": { "CODIGO": 15015, "NOMBRE": "Palanquinos", "LAT": 42.460716, "LON": -5.497584, "ACCESIBLE": 2, "DIR": "Pza. Santa Rita, 10", "LOCALIDAD": "VILLANUEVA DE LAS MANZANAS", "PROV": "LEÓN", "CERC": 0, "NIVEL": 3, "ATENDO": 0}, "geometry": { "type": "Point", "coordinates": [ -5.497584, 42.460716 ] } },
{ "type": "Feature", "properties": { "CODIGO": 15106, "NOMBRE": "La Robla", "LAT": 42.804454, "LON": -5.626255, "ACCESIBLE": 2, "DIR": "C/ la Estación, S/N", "LOCALIDAD": "ROBLA (LA)", "PROV": "LEÓN", "CERC": 0, "NIVEL": 3, "ATENDO": 0}, "geometry": { "type": "Point", "coordinates": [ -5.626255, 42.804454 ] } },
{ "type": "Feature", "properties": { "CODIGO": 15108, "NOMBRE": "La Pola de Gordon", "LAT": 42.854099, "LON": -5.674524, "ACCESIBLE": 2, "DIR": "C/ Capitan Lozano, 7", "LOCALIDAD": "POLA DE GORDÓN (LA)", "PROV": "LEÓN", "CERC": 0, "NIVEL": 3, "ATENDO": 0}, "geometry": { "type": "Point", "coordinates": [ -5.674524, 42.854099 ] } },
{ "type": "Feature", "properties": { "CODIGO": 15112, "NOMBRE": "Villamanin", "LAT": 42.93671, "LON": -5.657637, "ACCESIBLE": 2, "DIR": "C/ Estación Ferrocarril, 5", "LOCALIDAD": "VILLAMANÍN", "PROV": "LEÓN", "CERC": 0, "NIVEL": 3, "ATENDO": 0}, "geometry": { "type": "Point", "coordinates": [ -5.657637, 42.93671 ] } },
{ "type": "Feature", "properties": { "CODIGO": 15116, "NOMBRE": "Linares-Congostinas", "LAT": 43.101743, "LON": -5.772162, "ACCESIBLE": 2, "DIR": "Camino Aspr - 92 --- Estación Ferrocarril, S/N", "LOCALIDAD": "LENA", "PROV": "ASTURIAS", "CERC": 0, "NIVEL": 3, "ATENDO": 0}, "geometry": { "type": "Point", "coordinates": [ -5.772162, 43.101743 ] } },
{ "type": "Feature", "properties": { "CODIGO": 15200, "NOMBRE": "Uxo", "LAT": 43.2046962, "LON": -5.7926422, "ACCESIBLE": 1, "DIR": "C/ Estación - S/N", "LOCALIDAD": "MIERES", "PROV": "ASTURIAS", "CERC": 1, "NIVEL": 3, "ATENDO": 0}, "geometry": { "type": "Point", "coordinates": [ -5.792642, 43.204696 ] } },
{ "type": "Feature", "properties": { "CODIGO": 15120, "NOMBRE": "Campumanes", "LAT": 43.1100681, "LON": -5.8164466, "ACCESIBLE": 2, "DIR": "C/ la Estación, S/N", "LOCALIDAD": "LENA", "PROV": "ASTURIAS", "CERC": 1, "NIVEL": 3, "ATENDO": 0}, "geometry": { "type": "Point", "coordinates": [ -5.816447, 43.110068 ] } },
{ "type": "Feature", "properties": { "CODIGO": 15118, "NOMBRE": "Fierros", "LAT": 43.0715986, "LON": -5.769465, "ACCESIBLE": 2, "DIR": "Estación Puente los Fierros", "LOCALIDAD": "LENA", "PROV": "ASTURIAS", "CERC": 1, "NIVEL": 3, "ATENDO": 0}, "geometry": { "type": "Point", "coordinates": [ -5.769465, 43.071599 ] } },
{ "type": "Feature", "properties": { "CODIGO": 23009, "NOMBRE": "Catoira", "LAT": 42.672166, "LON": -8.725291, "ACCESIBLE": 2, "DIR": "Praza Do Doctor Jose R. Vazquez, 1 --- Rúa da Estación, S/N", "LOCALIDAD": "CATOIRA", "PROV": "PONTEVEDRA", "CERC": 0, "NIVEL": 2, "ATENDO": 0}, "geometry": { "type": "Point", "coordinates": [ -8.725291, 42.672166 ] } },
{ "type": "Feature", "properties": { "CODIGO": 23011, "NOMBRE": "Padron", "LAT": 42.738967, "LON": -8.652614, "ACCESIBLE": 2, "DIR": "Camiño Luans, 45", "LOCALIDAD": "PADRÓN", "PROV": "CORUÑA, A", "CERC": 0, "NIVEL": 2, "ATENDO": 0}, "geometry": { "type": "Point", "coordinates": [ -8.652614, 42.738967 ] } },
{ "type": "Feature", "properties": { "CODIGO": 31415, "NOMBRE": "Ordes", "LAT": 43.037544, "LON": -8.448447, "ACCESIBLE": 2, "DIR": "C/ Fosado, 28", "LOCALIDAD": "ORDES", "PROV": "CORUÑA, A", "CERC": 0, "NIVEL": 3, "ATENDO": 0}, "geometry": { "type": "Point", "coordinates": [ -8.448447, 43.037544 ] } },
{ "type": "Feature", "properties": { "CODIGO": 31411, "NOMBRE": "Uxes", "LAT": 43.297374, "LON": -8.444404, "ACCESIBLE": 2, "DIR": "Ctra. Dp-0510 - Travesia Estación, S/N", "LOCALIDAD": "ARTEIXO", "PROV": "CORUÑA, A", "CERC": 0, "NIVEL": 3, "ATENDO": 0}, "geometry": { "type": "Point", "coordinates": [ -8.444404, 43.297374 ] } },
{ "type": "Feature", "properties": { "CODIGO": 23013, "NOMBRE": "Osebe", "LAT": 42.825298, "LON": -8.61584, "ACCESIBLE": 2, "DIR": "Ctra. Dp-0205 - Estación Ferrocarril, S/N", "LOCALIDAD": "TEO", "PROV": "CORUÑA, A", "CERC": 0, "NIVEL": 3, "ATENDO": 0}, "geometry": { "type": "Point", "coordinates": [ -8.61584, 42.825298 ] } },
{ "type": "Feature", "properties": { "CODIGO": 23001, "NOMBRE": "Cesantes", "LAT": 42.310258, "LON": -8.616541, "ACCESIBLE": 2, "DIR": "C/ Estrada Praia de Cesantes, 80", "LOCALIDAD": "REDONDELA", "PROV": "PONTEVEDRA", "CERC": 0, "NIVEL": 3, "ATENDO": 0}, "geometry": { "type": "Point", "coordinates": [ -8.616541, 42.310258 ] } },
{ "type": "Feature", "properties": { "CODIGO": 20008, "NOMBRE": "Villavante", "LAT": 42.46458, "LON": -5.838914, "ACCESIBLE": 2, "DIR": "C/ El Palacio, 32", "LOCALIDAD": "SANTA MARINA DEL REY", "PROV": "LEÓN", "CERC": 0, "NIVEL": 3, "ATENDO": 0}, "geometry": { "type": "Point", "coordinates": [ -5.838914, 42.46458 ] } },
{ "type": "Feature", "properties": { "CODIGO": 20006, "NOMBRE": "Barrientos", "LAT": 42.414301, "LON": -5.963988, "ACCESIBLE": 2, "DIR": "C/ Santa Ana, 20", "LOCALIDAD": "VALDERREY", "PROV": "LEÓN", "CERC": 0, "NIVEL": 3, "ATENDO": 0}, "geometry": { "type": "Point", "coordinates": [ -5.963988, 42.414301 ] } },
{ "type": "Feature", "properties": { "CODIGO": 20007, "NOMBRE": "Nistal", "LAT": 42.424462, "LON": -6.00803, "ACCESIBLE": 2, "DIR": "C/ Antonio Aceña, 21", "LOCALIDAD": "SAN JUSTO DE LA VEGA", "PROV": "LEÓN", "CERC": 0, "NIVEL": 3, "ATENDO": 0}, "geometry": { "type": "Point", "coordinates": [ -6.00803, 42.424462 ] } },
{ "type": "Feature", "properties": { "CODIGO": 22006, "NOMBRE": "Barra de Miño", "LAT": 42.401095, "LON": -7.802567, "ACCESIBLE": 2, "DIR": "Rúa da Estación, 34-37", "LOCALIDAD": "COLES", "PROV": "OURENSE", "CERC": 0, "NIVEL": 3, "ATENDO": 0}, "geometry": { "type": "Point", "coordinates": [ -7.802567, 42.401095 ] } },
{ "type": "Feature", "properties": { "CODIGO": 22003, "NOMBRE": "San Estevo Do Sil", "LAT": 42.426921, "LON": -7.661676, "ACCESIBLE": 2, "DIR": "Ctra. Lu-P-4103 - Estación Ferrocarril, S/N", "LOCALIDAD": "PANTÓN", "PROV": "LUGO", "CERC": 0, "NIVEL": 3, "ATENDO": 0}, "geometry": { "type": "Point", "coordinates": [ -7.661676, 42.426921 ] } },
{ "type": "Feature", "properties": { "CODIGO": 22001, "NOMBRE": "Canabal", "LAT": 42.482882, "LON": -7.587733, "ACCESIBLE": 2, "DIR": "Travesia Estación Ferrocarril, 19", "LOCALIDAD": "SOBER", "PROV": "LUGO", "CERC": 0, "NIVEL": 3, "ATENDO": 0}, "geometry": { "type": "Point", "coordinates": [ -7.587733, 42.482882 ] } },
{ "type": "Feature", "properties": { "CODIGO": 20214, "NOMBRE": "Montefurado", "LAT": 42.39402, "LON": -7.1984, "ACCESIBLE": 2, "DIR": "C/ San Miguel Montef, 4", "LOCALIDAD": "QUIROGA", "PROV": "LUGO", "CERC": 0, "NIVEL": 3, "ATENDO": 0}, "geometry": { "type": "Point", "coordinates": [ -7.1984, 42.39402 ] } },
{ "type": "Feature", "properties": { "CODIGO": 20208, "NOMBRE": "Quereño", "LAT": 42.420704, "LON": -6.829486, "ACCESIBLE": 2, "DIR": "Rúa da Estación, S/N", "LOCALIDAD": "RUBIÁ", "PROV": "OURENSE", "CERC": 0, "NIVEL": 3, "ATENDO": 0}, "geometry": { "type": "Point", "coordinates": [ -6.829486, 42.420704 ] } },
{ "type": "Feature", "properties": { "CODIGO": 20207, "NOMBRE": "Covas", "LAT": 42.475326, "LON": -6.830878, "ACCESIBLE": 2, "DIR": "C/ Estación Ferrocarril, S/N", "LOCALIDAD": "RUBIÁ", "PROV": "OURENSE", "CERC": 0, "NIVEL": 3, "ATENDO": 0}, "geometry": { "type": "Point", "coordinates": [ -6.830878, 42.475326 ] } },
{ "type": "Feature", "properties": { "CODIGO": 20203, "NOMBRE": "Villadepalos", "LAT": 42.53686, "LON": -6.751109, "ACCESIBLE": 2, "DIR": "C/ Camino del Apeadero, S/N", "LOCALIDAD": "CARRACEDELO", "PROV": "LEÓN", "CERC": 0, "NIVEL": 3, "ATENDO": 0}, "geometry": { "type": "Point", "coordinates": [ -6.751109, 42.53686 ] } },
{ "type": "Feature", "properties": { "CODIGO": 22110, "NOMBRE": "Caldelas", "LAT": 42.055813, "LON": -8.566343, "ACCESIBLE": 2, "DIR": "Ctra. Po - 404 --- Estación Ferrocarril, S/N", "LOCALIDAD": "TUI", "PROV": "PONTEVEDRA", "CERC": 0, "NIVEL": 3, "ATENDO": 0}, "geometry": { "type": "Point", "coordinates": [ -8.566343, 42.055813 ] } },
{ "type": "Feature", "properties": { "CODIGO": 22108, "NOMBRE": "As Neves", "LAT": 42.075462, "LON": -8.420074, "ACCESIBLE": 2, "DIR": "Ctra. Ep - 4203 --- Estación Ferrocarril, S/N", "LOCALIDAD": "NEVES (AS)", "PROV": "PONTEVEDRA", "CERC": 0, "NIVEL": 3, "ATENDO": 0}, "geometry": { "type": "Point", "coordinates": [ -8.420074, 42.075462 ] } },
{ "type": "Feature", "properties": { "CODIGO": 22106, "NOMBRE": "Arbo", "LAT": 42.107058, "LON": -8.300247, "ACCESIBLE": 2, "DIR": "Rúa da Estación, 2", "LOCALIDAD": "ARBO", "PROV": "PONTEVEDRA", "CERC": 0, "NIVEL": 3, "ATENDO": 0}, "geometry": { "type": "Point", "coordinates": [ -8.300247, 42.107058 ] } },
{ "type": "Feature", "properties": { "CODIGO": 22105, "NOMBRE": "Pousa-Crecente", "LAT": 42.136705, "LON": -8.234889, "ACCESIBLE": 2, "DIR": "C/ Pousa - Estación Ferrocarril, S/N", "LOCALIDAD": "CRECENTE", "PROV": "PONTEVEDRA", "CERC": 0, "NIVEL": 3, "ATENDO": 0}, "geometry": { "type": "Point", "coordinates": [ -8.234889, 42.136705 ] } },
{ "type": "Feature", "properties": { "CODIGO": 22103, "NOMBRE": "Filgueira", "LAT": 42.219917, "LON": -8.184788, "ACCESIBLE": 2, "DIR": "Ctra. Po - 401 --- Estación Ferrocarril, S/N", "LOCALIDAD": "CRECENTE", "PROV": "PONTEVEDRA", "CERC": 0, "NIVEL": 3, "ATENDO": 0}, "geometry": { "type": "Point", "coordinates": [ -8.184788, 42.219917 ] } },
{ "type": "Feature", "properties": { "CODIGO": 22102, "NOMBRE": "Ribadavia", "LAT": 42.2931, "LON": -8.139261, "ACCESIBLE": 2, "DIR": "Rúa Baixada O Consello, S/N", "LOCALIDAD": "RIBADAVIA", "PROV": "OURENSE", "CERC": 0, "NIVEL": 3, "ATENDO": 0}, "geometry": { "type": "Point", "coordinates": [ -8.139261, 42.2931 ] } },
{ "type": "Feature", "properties": { "CODIGO": 20410, "NOMBRE": "Elviña-Universidade", "LAT": 43.335222, "LON": -8.413061, "ACCESIBLE": 2, "DIR": "C/ Estación Ferrocarril, S/N", "LOCALIDAD": "CORUÑA (A)", "PROV": "CORUÑA, A", "CERC": 0, "NIVEL": 3, "ATENDO": 0}, "geometry": { "type": "Point", "coordinates": [ -8.413061, 43.335222 ] } },
{ "type": "Feature", "properties": { "CODIGO": 20402, "NOMBRE": "Cecebre", "LAT": 43.287913, "LON": -8.307767, "ACCESIBLE": 2, "DIR": "C/ Apeadeiro, S/N", "LOCALIDAD": "CAMBRE", "PROV": "CORUÑA, A", "CERC": 0, "NIVEL": 3, "ATENDO": 0}, "geometry": { "type": "Point", "coordinates": [ -8.307767, 43.287913 ] } },
{ "type": "Feature", "properties": { "CODIGO": 20320, "NOMBRE": "Oza Dos Rios", "LAT": 43.21877, "LON": -8.187111, "ACCESIBLE": 2, "DIR": "C/ Lois, 48", "LOCALIDAD": "OZA DOS RÍOS", "PROV": "CORUÑA, A", "CERC": 0, "NIVEL": 3, "ATENDO": 0}, "geometry": { "type": "Point", "coordinates": [ -8.187111, 43.21877 ] } },
{ "type": "Feature", "properties": { "CODIGO": 20318, "NOMBRE": "Piñoi", "LAT": 43.127922, "LON": -8.163498, "ACCESIBLE": 2, "DIR": "C/ Estación Ferrocarril, S/N", "LOCALIDAD": "CESURAS", "PROV": "CORUÑA, A", "CERC": 0, "NIVEL": 3, "ATENDO": 0}, "geometry": { "type": "Point", "coordinates": [ -8.163498, 43.127922 ] } },
{ "type": "Feature", "properties": { "CODIGO": 30000, "NOMBRE": "Monfragüe-Plasencia", "LAT": 39.937464, "LON": -6.10091, "ACCESIBLE": 2, "DIR": "Ctra. Estación Ferrocarril Malpartida, S/N", "LOCALIDAD": "MALPARTIDA DE PLASENCIA", "PROV": "CÁCERES", "CERC": 0, "NIVEL": 2, "ATENDO": 0}, "geometry": { "type": "Point", "coordinates": [ -6.10091, 39.937464 ] } },
{ "type": "Feature", "properties": { "CODIGO": 56009, "NOMBRE": "Cabra del Santo Cristo Y Alicun", "LAT": 37.6567129, "LON": -3.262623, "ACCESIBLE": 2, "DIR": "Ctra. Jv - 3212 --- Estación Ferrocarril, S/N", "LOCALIDAD": "CABRA DEL SANTO CRISTO", "PROV": "JAÉN", "CERC": 0, "NIVEL": 3, "ATENDO": 0}, "geometry": { "type": "Point", "coordinates": [ -3.262623, 37.656713 ] } },
{ "type": "Feature", "properties": { "CODIGO": 65311, "NOMBRE": "Benicarló-Peñíscola", "LAT": 40.427639, "LON": 0.415217, "ACCESIBLE": 1, "DIR": "Pla. Estación Ferrocarril, S/N", "LOCALIDAD": "BENICARLÓ", "PROV": "CASTELLÓN/CASTELLÓ", "CERC": 1, "NIVEL": 2, "ATENDO": 1}, "geometry": { "type": "Point", "coordinates": [ 0.415217, 40.427639 ] } },
{ "type": "Feature", "properties": { "CODIGO": 20100, "NOMBRE": "Astorga", "LAT": 42.459489, "LON": -6.047212, "ACCESIBLE": 2, "DIR": "Avda. Estación Ferrocarril, S/N", "LOCALIDAD": "ASTORGA", "PROV": "LEÓN", "CERC": 0, "NIVEL": 2, "ATENDO": 1}, "geometry": { "type": "Point", "coordinates": [ -6.047212, 42.459489 ] } },
{ "type": "Feature", "properties": { "CODIGO": 30100, "NOMBRE": "Salamanca", "LAT": 40.972235, "LON": -5.64899, "ACCESIBLE": 1, "DIR": "Paseo de la Estación, 122", "LOCALIDAD": "SALAMANCA", "PROV": "SALAMANCA", "CERC": 0, "NIVEL": 1, "ATENDO": 1}, "geometry": { "type": "Point", "coordinates": [ -5.64899, 40.972235 ] } },
{ "type": "Feature", "properties": { "CODIGO": 51003, "NOMBRE": "Sevilla-Santa Justa", "LAT": 37.3924955, "LON": -5.9749269, "ACCESIBLE": 1, "DIR": "Avda. Kansas City, S/N", "LOCALIDAD": "SEVILLA", "PROV": "SEVILLA", "CERC": 1, "NIVEL": 1, "ATENDO": 1}, "geometry": { "type": "Point", "coordinates": [ -5.974927, 37.392496 ] } },
{ "type": "Feature", "properties": { "CODIGO": 51406, "NOMBRE": "San Fernando-Bahía Sur", "LAT": 36.4680834, "LON": -6.2067676, "ACCESIBLE": 1, "DIR": "C/ Ferrocarril S/N.", "LOCALIDAD": "SAN FERNANDO", "PROV": "CÁDIZ", "CERC": 1, "NIVEL": 2, "ATENDO": 1}, "geometry": { "type": "Point", "coordinates": [ -6.206768, 36.468083 ] } },
{ "type": "Feature", "properties": { "CODIGO": 71209, "NOMBRE": "Riba-Roja D'ebre", "LAT": 41.2485594, "LON": 0.48103178, "ACCESIBLE": 2, "DIR": "Ctra. Tv-7411 - Estació Ferrocarril, S/N", "LOCALIDAD": "RIBA-ROJA D'EBRE", "PROV": "TARRAGONA", "CERC": 1, "NIVEL": 1, "ATENDO": 0}, "geometry": { "type": "Point", "coordinates": [ 0.481032, 41.248559 ] } },
{ "type": "Feature", "properties": { "CODIGO": 70807, "NOMBRE": "Zaragoza Goya", "LAT": 41.6438779, "LON": -0.8912574, "ACCESIBLE": 2, "DIR": "Av. de Goya 51", "LOCALIDAD": "ZARAGOZA", "PROV": "ZARAGOZA", "CERC": 1, "NIVEL": 2, "ATENDO": 0}, "geometry": { "type": "Point", "coordinates": [ -0.891257, 41.643878 ] } },
{ "type": "Feature", "properties": { "CODIGO": 73003, "NOMBRE": "Les Borges Blanques", "LAT": 41.5213973, "LON": 0.87791022, "ACCESIBLE": 2, "DIR": "Camí del Carro, S/N", "LOCALIDAD": "BORGES BLANQUES (LES)", "PROV": "LLEIDA", "CERC": 1, "NIVEL": 3, "ATENDO": 0}, "geometry": { "type": "Point", "coordinates": [ 0.87791, 41.521397 ] } },
{ "type": "Feature", "properties": { "CODIGO": 79315, "NOMBRE": "Portbou", "LAT": 42.4245908, "LON": 3.15801841, "ACCESIBLE": 1, "DIR": "C/ Claudi Planas, S/N", "LOCALIDAD": "PORTBOU", "PROV": "GIRONA", "CERC": 1, "NIVEL": 1, "ATENDO": 1}, "geometry": { "type": "Point", "coordinates": [ 3.158018, 42.424591 ] } },
{ "type": "Feature", "properties": { "CODIGO": 78403, "NOMBRE": "Mollerussa", "LAT": 41.631779, "LON": 0.896775, "ACCESIBLE": 2, "DIR": "Pl. L'Estació Ferrocarril, 4", "LOCALIDAD": "MOLLERUSSA", "PROV": "LLEIDA", "CERC": 1, "NIVEL": 2, "ATENDO": 0}, "geometry": { "type": "Point", "coordinates": [ 0.896775, 41.631779 ] } },
{ "type": "Feature", "properties": { "CODIGO": 78502, "NOMBRE": "Sant Martí Sesgueioles", "LAT": 41.701217, "LON": 1.486204, "ACCESIBLE": 2, "DIR": "Passeig Dels Germans Forn, S/N", "LOCALIDAD": "SANT MARTÍ SESGUEIOLES", "PROV": "BARCELONA", "CERC": 1, "NIVEL": 3, "ATENDO": 0}, "geometry": { "type": "Point", "coordinates": [ 1.486204, 41.701217 ] } },
{ "type": "Feature", "properties": { "CODIGO": 74206, "NOMBRE": "Riglos", "LAT": 42.344756, "LON": -0.731599, "ACCESIBLE": 2, "DIR": "C/ Estación Ferrocarril, S/N", "LOCALIDAD": "PEÑAS DE RIGLOS (LAS)", "PROV": "HUESCA", "CERC": 0, "NIVEL": 3, "ATENDO": 0}, "geometry": { "type": "Point", "coordinates": [ -0.731599, 42.344756 ] } },
{ "type": "Feature", "properties": { "CODIGO": 79205, "NOMBRE": "Fornells De La Selva", "LAT": 41.935043, "LON": 2.80978324, "ACCESIBLE": 2, "DIR": "C/ Caterina Albert, S/N", "LOCALIDAD": "FORNELLS DE LA SELVA", "PROV": "GIRONA", "CERC": 1, "NIVEL": 2, "ATENDO": 0}, "geometry": { "type": "Point", "coordinates": [ 2.809783, 41.935043 ] } },
{ "type": "Feature", "properties": { "CODIGO": 79316, "NOMBRE": "Cerbère", "LAT": 42.441664, "LON": 3.16314935, "ACCESIBLE": 2, "DIR": "Rue Lamartine", "LOCALIDAD": "PORTBOU", "PROV": "GIRONA", "CERC": 1, "NIVEL": 1, "ATENDO": 0}, "geometry": { "type": "Point", "coordinates": [ 3.163149, 42.441664 ] } },